{"locations":[{"location":{"lng":"2.3227111","lat":"48.8943759"},"title":"FRANPRIX","address":"10 RUE BARON","post_code":"75017","city":"PARIS"},{"location":{"lng":"2.4704889","lat":"48.4018025"},"title":"FRANPRIX","address":"49 PLACE DU MARCH\u00e9","post_code":"91940","city":"Milly-la-For\u00eat"},{"location":{"lng":"4.8818413","lat":"44.9328051"},"title":"FRANPRIX","address":"9 BIS RUE LOUIS PASTEUR","post_code":"26000","city":"VALENCE"},{"location":{"lng":"2.3495729","lat":"48.8421609"},"title":"FRANPRIX","address":"82 RUE MOUFFETARD","post_code":"75005","city":"PARIS"},{"location":{"lng":"2.250755","lat":"48.8764429"},"title":"FRANPRIX","address":"135\/137 RUE LONGCHAMP","post_code":"92200","city":"NEUILLY-SUR -SEINE"},{"location":{"lng":"2.8796936","lat":"48.9555007"},"title":"FRANPRIX","address":"73 RUE DU COMMANDANT BERGE","post_code":"77100","city":"MEAUX"},{"location":{"lng":"2.3107138","lat":"48.8598358"},"title":"FRANPRIX","address":"67 RUE SAINT-DOMINIQUE","post_code":"75007","city":"PARIS"},{"location":{"lng":"2.316779","lat":"48.9665682"},"title":"FRANPRIX","address":"7 RUE D'ORMESSON","post_code":"95170","city":"DEUIL-LA-BARRE"},{"location":{"lng":"2.2564778","lat":"48.9493129"},"title":"FRANPRIX","address":"13 RUE DU DOCTEUR LERAY","post_code":"95100","city":"ARGENTEUIL"},{"location":{"lng":"2.1305824","lat":"48.8076915"},"title":"FRANPRIX","address":"5 RUE RAMEAU","post_code":"78000","city":"VERSAILLES"},{"location":{"lng":"1.9711575","lat":"48.79158289999999"},"title":"FRANPRIX","address":"QUARTIER CLE ST PIERRE LOT 35 A  ","post_code":"78990","city":"ELANCOURT"},{"location":{"lng":"2.3296103","lat":"48.8930266"},"title":"FRANPRIX","address":"258 RUE MARCADET","post_code":"75018","city":"PARIS"},{"location":{"lng":"2.2512156","lat":"48.83293279999999"},"title":"FRANPRIX","address":"33 RUE DU DOME","post_code":"92100","city":"BOULOGNE-BILLANCOURT"},{"location":{"lng":"2.323016","lat":"48.8868869"},"title":"FRANPRIX","address":"27 RUE DE LA CONDAMINE","post_code":"75017","city":"PARIS"},{"location":{"lng":"2.6166174","lat":"48.8063865"},"title":"FRANPRIX","address":"2 PLACE ARIBAULT","post_code":"77340","city":"PONTAULT-COMBAULT"},{"location":{"lng":"2.4844065","lat":"48.6074247"},"title":"FRANPRIX","address":"107 RUE SAINT SPIRE","post_code":"91100","city":"CORBEIL-ESSONNES"},{"location":{"lng":"3.0849058","lat":"48.8149071"},"title":"FRANPRIX","address":"15 COURS GAMBETTA","post_code":"77120","city":"COULOMMIERS"},{"location":{"lng":"2.3790762","lat":"48.8748928"},"title":"FRANPRIX","address":"2 RUE LAUZIN","post_code":"75019","city":"PARIS"},{"location":{"lng":"2.3259553","lat":"48.8856931"},"title":"FRANPRIX","address":"4 RUE DES DAMES","post_code":"75017","city":"PARIS"},{"location":{"lng":"2.2874601","lat":"48.8445089"},"title":"FRANPRIX","address":"35 RUE DE L'EGLISE","post_code":"75015","city":"PARIS"},{"location":{"lng":"2.2969864","lat":"48.8445343"},"title":"FRANPRIX","address":"63 RUE CROIX NIVERT","post_code":"75015","city":"PARIS"},{"location":{"lng":"2.3917849","lat":"48.8543525"},"title":"FRANPRIX","address":"79 AVENUE PHILIPPE AUGUSTE","post_code":"75011","city":"PARIS"},{"location":{"lng":"2.5056246","lat":"48.9047474"},"title":"FRANPRIX","address":"7 ALL\u00e9E ROBILLARD","post_code":"93320","city":"Les Pavillons-Sous-Bois"},{"location":{"lng":"2.3261307","lat":"48.8973281"},"title":"FRANPRIX","address":"25 BOULEVARD HENRI BESSIERES","post_code":"75017","city":"PARIS"},{"location":{"lng":"2.2904773","lat":"48.8487048"},"title":"FRANPRIX","address":"32 RUE DE LOURMEL","post_code":"75015","city":"PARIS"},{"location":{"lng":"2.3347628","lat":"48.8299184"},"title":"FRANPRIX","address":"45 RUE DAREAU","post_code":"75014","city":"PARIS"},{"location":{"lng":"2.2601714","lat":"48.8178207"},"title":"FRANPRIX","address":"54 RUE EREVAN","post_code":"92130","city":"ISSY-LES-MOULINEAUX"},{"location":{"lng":"2.4079064","lat":"48.8576555"},"title":"FRANPRIX","address":"53 RUE SAINT-BLAISE","post_code":"75020","city":"PARIS"},{"location":{"lng":"2.3199992","lat":"48.8346587"},"title":"FRANPRIX","address":"53 RUE LOSSERAND","post_code":"75014","city":"PARIS"},{"location":{"lng":"2.1692346","lat":"48.8889653"},"title":"FRANPRIX","address":"14 RUE JACQUES DAGUERRE","post_code":"92500","city":"Rueil-Malmaison"},{"location":{"lng":"2.2229041","lat":"48.89575259999999"},"title":"FRANPRIX","address":"12 ESPLANADE CHARLES DE GAULLE","post_code":"92000","city":"NANTERRE"},{"location":{"lng":"2.3009485","lat":"48.845654"},"title":"FRANPRIX","address":"27 VILLA CROIX NIVERT","post_code":"75015","city":"PARIS"},{"location":{"lng":"2.3995332","lat":"48.834895"},"title":"FRANPRIX","address":"74 RUE DE WATTIGNIES","post_code":"75012","city":"PARIS"},{"location":{"lng":"2.3741192","lat":"48.878595"},"title":"FRANPRIX","address":"105 AVENUE SIMON BOLIVAR","post_code":"75019","city":"PARIS"},{"location":{"lng":"2.2898436","lat":"48.8423306"},"title":"FRANPRIX","address":"152 RUE DE JAVEL","post_code":"75015","city":"PARIS"},{"location":{"lng":"2.3651324","lat":"48.8802399"},"title":"FRANPRIX","address":"16 RUE ALEXANDRE PARODI","post_code":"75010","city":"PARIS"},{"location":{"lng":"2.1182163","lat":"48.784448"},"title":"FRANPRIX","address":"CENTRE COMMERCIAL, ROUTE DES DOCKS","post_code":"78013","city":"VERSAILLES-SATORY"},{"location":{"lng":"2.3904049","lat":"48.8753336"},"title":"FRANPRIX","address":"146 RUE DE BELLEVILLE","post_code":"75020","city":"PARIS"},{"location":{"lng":"2.3009704","lat":"48.8823485"},"title":"FRANPRIX","address":"121 AVENUE DE WAGRAM","post_code":"75017","city":"PARIS"},{"location":{"lng":"2.4257263","lat":"48.7862859"},"title":"FRANPRIX","address":"146 RUE ETIENNE DOLET","post_code":"94140","city":"ALFORTVILLE"},{"location":{"lng":"2.3044778","lat":"48.8551814"},"title":"FRANPRIX","address":"107 AVENUE DE LA BOURDONNAIS","post_code":"75007","city":"PARIS"},{"location":{"lng":"2.3920486","lat":"48.8860172"},"title":"FRANPRIX","address":"98-108 RUE PETIT","post_code":"75019","city":"PARIS"},{"location":{"lng":"2.8240826","lat":"49.4170092"},"title":"FRANPRIX","address":"23 RUE SAINT-CORNEILLE","post_code":"60200","city":"COMPIEGNE"},{"location":{"lng":"2.3497299","lat":"48.8402122"},"title":"FRANPRIX","address":"122-124 RUE MOUFFETARD","post_code":"75005","city":"PARIS"},{"location":{"lng":"2.195448","lat":"48.88509149999999"},"title":"FRANPRIX","address":"43 AVENUE DU MR\u00e9CHAL JOFFRE","post_code":"92000","city":"NANTERRE"},{"location":{"lng":"2.3739958","lat":"48.826067"},"title":"FRANPRIX","address":"46 RUE PATAY","post_code":"75013","city":"PARIS"},{"location":{"lng":"2.4152142","lat":"48.76684059999999"},"title":"FRANPRIX","address":"6 AVENUE VICTOR HUGO","post_code":"94600","city":"CHOISY-LE-ROI"},{"location":{"lng":"2.3871914","lat":"48.8592451"},"title":"FRANPRIX","address":"180-186 RUE DE LA ROQUETTE","post_code":"75011","city":"PARIS"},{"location":{"lng":"2.3177808","lat":"48.8731263"},"title":"FRANPRIX","address":"1-3 RUE DE PENTHIEVRE","post_code":"75008","city":"PARIS"},{"location":{"lng":"2.4022796","lat":"48.8366019"},"title":"FRANPRIX","address":"126 RUE DE PICPUS","post_code":"75012","city":"PARIS"},{"location":{"lng":"2.2863557","lat":"48.8749562"},"title":"FRANPRIX","address":"26 RUE DURET","post_code":"75016","city":"PARIS"},{"location":{"lng":"2.3581214","lat":"48.873728"},"title":"FRANPRIX","address":"55-61 BOULEVARD MAGENTA","post_code":"75010","city":"PARIS"},{"location":{"lng":"2.2580322","lat":"48.9151244"},"title":"FRANPRIX","address":"17 RUE DES VALL\u00e9ES","post_code":"92700","city":"COLOMBES"},{"location":{"lng":"2.2580525","lat":"48.7177197"},"title":"FRANPRIX","address":"RUE GUSTAVE FLAUBERT","post_code":"91120","city":"PALAISEAU"},{"location":{"lng":"2.4060786","lat":"48.8763997"},"title":"FRANPRIX","address":"259 AVENUE GAMBETTA","post_code":"75020","city":"PARIS"},{"location":{"lng":"2.2251649","lat":"48.8685117"},"title":"FRANPRIX","address":"PLACE DU MOUTIER","post_code":"92000","city":"SAINT-CLOUD"},{"location":{"lng":"2.2443016","lat":"48.9014011"},"title":"FRANPRIX","address":"80 AVENUE MARCEAU","post_code":"92400","city":"Courbevoie"},{"location":{"lng":"2.3184387","lat":"48.7868042"},"title":"FRANPRIX","address":"11-13 AVENUE DU GENERAL LECLERC","post_code":"92340","city":"Bourg-La-Reine"},{"location":{"lng":"2.2697067","lat":"48.9061025"},"title":"FRANPRIX","address":"4 RUE MADIRAA","post_code":"92400","city":"Courbevoie"},{"location":{"lng":"2.326098","lat":"48.892869"},"title":"FRANPRIX","address":"65 RUE GUY MOQUET","post_code":"75017","city":"PARIS"},{"location":{"lng":"2.2694203","lat":"48.8094845"},"title":"FRANPRIX","address":"1 RUE JULES FERRY","post_code":"92140","city":"CLAMART"},{"location":{"lng":"2.2842523","lat":"48.8404035"},"title":"FRANPRIX","address":"143 RUE DE LOURMEL","post_code":"75015","city":"PARIS"},{"location":{"lng":"2.4183374","lat":"48.8939623"},"title":"FRANPRIX","address":"156 AVENUE JEAN LOLIVE","post_code":"93500","city":"PANTIN"},{"location":{"lng":"2.4997025","lat":"48.8352777"},"title":"FRANPRIX","address":"57 AVENUE PIERRE BROSSOLETTE","post_code":"94170","city":"LE PERREUX-SUR-MARNE"},{"location":{"lng":"2.3988701","lat":"48.7562761"},"title":"FRANPRIX","address":"1 RUE DE LORRAINE","post_code":"94320","city":"THIAIS"},{"location":{"lng":"2.3564031","lat":"48.8380003"},"title":"FRANPRIX","address":"47 BOULEVARD SAINT MARCEL","post_code":"75013","city":"PARIS"},{"location":{"lng":"2.7043493","lat":"48.8709156"},"title":"FRANPRIX","address":"Centre Commercial des Hauts de Lagny","post_code":"77400","city":"LAGNY-SUR-MARNE"},{"location":{"lng":"2.3892307","lat":"48.8639564"},"title":"FRANPRIX","address":"14 RUE DES AMANDIERS","post_code":"75020","city":"PARIS"},{"location":{"lng":"2.3177102","lat":"48.9890451"},"title":"FRANPRIX","address":"6 RUE DE PONTOISE","post_code":"95160","city":"Montmorency"},{"location":{"lng":"2.2109629","lat":"48.8227228"},"title":"FRANPRIX","address":"4 RUE MIDRIN","post_code":"92310","city":"SEVRES"},{"location":{"lng":"2.3813689","lat":"48.8172624"},"title":"FRANPRIX","address":"25\/27 RUE PIERRE BROSSOLETTE","post_code":"94200","city":"IVRY-SUR-SEINE"},{"location":{"lng":"2.241843","lat":"48.8345593"},"title":"FRANPRIX","address":"11-13 RUE CARNOT","post_code":"92100","city":"BOULOGNE-BILLANCOURT"},{"location":{"lng":"2.3729303","lat":"48.8367162"},"title":"FRANPRIX","address":"13-15 BOULEVARD VINCENT AURIOL","post_code":"75013","city":"PARIS"},{"location":{"lng":"2.3720286","lat":"48.9805538"},"title":"FRANPRIX","address":"21 BOULEVARD ALBERT CAMUS","post_code":"95200","city":"SARCELLES"},{"location":{"lng":"2.3802834","lat":"48.887363"},"title":"FRANPRIX","address":"149 RUE DE CRIMEE","post_code":"75019","city":"PARIS"},{"location":{"lng":"2.4179259","lat":"48.8383881"},"title":"FRANPRIX","address":"69 AVENUE DU GENERAL DE GAULLE","post_code":"94160","city":"Saint-Mand\u00e9"},{"location":{"lng":"2.2647816","lat":"48.8857416"},"title":"FRANPRIX","address":"130 AVENUE PERETTI","post_code":"92200","city":"NEUILLY-SUR-SEINE"},{"location":{"lng":"2.3536702","lat":"48.83477389999999"},"title":"FRANPRIX","address":"51 AVENUE DES GOBELINS","post_code":"75013","city":"PARIS"},{"location":{"lng":"2.3699772","lat":"48.8299489"},"title":"FRANPRIX","address":"35 RUE CHARCOT","post_code":"75013","city":"PARIS"},{"location":{"lng":"2.290546","lat":"48.8532144"},"title":"FRANPRIX","address":"23 BOULEVARD DE GRENELLE","post_code":"75015","city":"PARIS"},{"location":{"lng":"2.343772","lat":"48.861762"},"title":"FRANPRIX","address":"35 RUE BERGER","post_code":"75001","city":"PARIS"},{"location":{"lng":"2.3422213","lat":"48.8935427"},"title":"FRANPRIX","address":"19 RUE DU POTEAUX","post_code":"75018","city":"PARIS"},{"location":{"lng":"2.4200673","lat":"48.8224981"},"title":"FRANPRIX","address":"56 AVENUE MARECHAL DE LATTRE DE TASSIGNY","post_code":"94410","city":"SAINT-MAURICE"},{"location":{"lng":"2.5041564","lat":"48.84315549999999"},"title":"FRANPRIX","address":"7 RUE DE LA STATION","post_code":"94170","city":"LE PERREUX-SUR-MARNE"},{"location":{"lng":"2.3710495","lat":"48.886517"},"title":"FRANPRIX","address":"35 AVENUE DE FLANDRES","post_code":"75019","city":"PARIS"},{"location":{"lng":"2.4223435","lat":"48.8039038"},"title":"FRANPRIX","address":"50 RUE VICTOR HUGO","post_code":"94140","city":"ALFORVILLE"},{"location":{"lng":"2.2562297","lat":"48.9035069"},"title":"FRANPRIX","address":"100 RUE DE COLOMBES","post_code":"92400","city":"Courbevoie"},{"location":{"lng":"2.4659482","lat":"48.7899214"},"title":"FRANPRIX","address":"91 RUE DU GENERAL LECLERC","post_code":"94000","city":"CRETEIL"},{"location":{"lng":"2.3681898","lat":"48.8716857"},"title":"FRANPRIX","address":"22 RUE ALIBERT","post_code":"75010","city":"PARIS"},{"location":{"lng":"2.2704837","lat":"48.88715020000001"},"title":"FRANPRIX","address":"34 RUE DE CHEZY","post_code":"92200","city":"NEUILLY-SUR-SEINE"},{"location":{"lng":"2.3352428","lat":"48.9124309"},"title":"FRANPRIX","address":"2 RUE DOCTEUR BAUER","post_code":"93400","city":"SAINT-OUEN"},{"location":{"lng":"2.3565275","lat":"48.8574193"},"title":"FRANPRIX","address":"20 RUE DU BOURG TIBOURG","post_code":"75004","city":"PARIS"},{"location":{"lng":"2.4240799","lat":"48.9334702"},"title":"FRANPRIX","address":"47 AVENUE DE LA DIVISION LECLERC","post_code":"93350","city":"LE BOURGET"},{"location":{"lng":"2.2849218","lat":"48.8204194"},"title":"FRANPRIX","address":"1 PLACE KENNEDY","post_code":"92170","city":"VANVES"},{"location":{"lng":"2.3870003","lat":"48.8356587"},"title":"FRANPRIX","address":"5-7 RUE BARON LE ROY","post_code":"75012","city":"PARIS"},{"location":{"lng":"2.4835459","lat":"48.8379339"},"title":"FRANPRIX","address":"21 RUE HEROS NOGENTAIS","post_code":"94130","city":"NOGENT-SUR-MARNE"},{"location":{"lng":"2.4440516","lat":"48.8627434"},"title":"FRANPRIX","address":"40 AVENUE FRANKLIN","post_code":"93100","city":"MONTREUIL"},{"location":{"lng":"2.3341444","lat":"48.8906605"},"title":"FRANPRIX","address":"116 RUE LAMARCK","post_code":"75018","city":"PARIS"},{"location":{"lng":"2.4068115","lat":"48.8469603"},"title":"FRANPRIX","address":"84 COURS DE VINCENNES","post_code":"75012","city":"PARIS"},{"location":{"lng":"2.4760099","lat":"48.8200964"},"title":"FRANPRIX","address":"AVENUE DU GENERAL GALLIENI","post_code":"94340","city":"JOINVILLE-LE-PONT"},{"location":{"lng":"2.135416600000001","lat":"48.7978933"},"title":"FRANPRIX","address":"47 RUE ETATS GENERAUX","post_code":"78000","city":"VERSAILLES"},{"location":{"lng":"2.6790758","lat":"48.5427393"},"title":"FRANPRIX","address":"6 Boulevard de l'Almont Centre Commercial H, Rue Saint-Liesne","post_code":"77000","city":"MELUN"},{"location":{"lng":"2.3636347","lat":"48.8741065"},"title":"FRANPRIX","address":"108-110 QUAI DE JEMMAPES","post_code":"75010","city":"PARIS"},{"location":{"lng":"2.3345471","lat":"48.8974645"},"title":"FRANPRIX","address":"21 RUE ANGELIQUE COMPOINT","post_code":"75018","city":"PARIS"},{"location":{"lng":"2.4100202","lat":"48.8923556"},"title":"FRANPRIX","address":"108 AVENUE JEAN LOLIVE","post_code":"93500","city":"PANTIN"},{"location":{"lng":"2.3885816","lat":"48.9025292"},"title":"FRANPRIX","address":"14 RUE HENRI BARBUSSE","post_code":"93300","city":"AUBERVILLIERS"},{"location":{"lng":"2.2823288","lat":"48.8426434"},"title":"FRANPRIX","address":"151 RUE SAINT-CHARLES","post_code":"75015","city":"PARIS"},{"location":{"lng":"2.3545589","lat":"48.8402106"},"title":"FRANPRIX","address":"12-14 RUE SANTEUIL","post_code":"75005","city":"PARIS"},{"location":{"lng":"2.399124","lat":"48.9704849"},"title":"FRANPRIX","address":"Avenue de la Commune de Paris","post_code":"95140","city":"Garges-l\u00e8s-Gonesse"},{"location":{"lng":"2.255738","lat":"48.8855512"},"title":"FRANPRIX","address":"85 AVENUE CHARLES DE GAULLE","post_code":"92800","city":"PUTEAUX"},{"location":{"lng":"2.2392208","lat":"48.83943499999999"},"title":"FRANPRIX","address":"81 ROUTE DE LA REINE","post_code":"92100","city":"BOULOGNE-BILLANCOURT"},{"location":{"lng":"2.5499522","lat":"48.7576067"},"title":"FRANPRIX","address":"2 RUE FAISAN DORE","post_code":"94390","city":"SUCY-SUR-BRIE"},{"location":{"lng":"2.2268123","lat":"48.8728512"},"title":"FRANPRIX","address":"4 RUE HONORE ESTIENNE D'ORVES","post_code":"92150","city":"SURESNES"},{"location":{"lng":"2.3809642","lat":"48.8454724"},"title":"FRANPRIX","address":"133 RUE DE CHARENTON","post_code":"75012","city":"PARIS"},{"location":{"lng":"2.4296882","lat":"48.8730865"},"title":"FRANPRIX","address":"47 AVENUE DE STALINGRAD","post_code":"93170","city":"BAGNOLET"},{"location":{"lng":"2.2446296","lat":"48.84123169999999"},"title":"FRANPRIX","address":"42 RUE DE L'EST","post_code":"92100","city":"BOULOGNE-BILLANCOURT"},{"location":{"lng":"2.36368","lat":"48.85167449999999"},"title":"FRANPRIX","address":"17 BOULEVARD HENRI IV","post_code":"75004","city":"PARIS"},{"location":{"lng":"2.3114653","lat":"48.8511303"},"title":"FRANPRIX","address":"45 AVENUE DUQUESNE","post_code":"75007","city":"PARIS"},{"location":{"lng":"2.8853114","lat":"42.6933078"},"title":"FRANPRIX","address":"13 AVENUE DU PRESIDENT DOUMER","post_code":"66000","city":"PERPIGNAN"},{"location":{"lng":"2.168968500000001","lat":"48.682655"},"title":"FRANPRIX","address":"4 AVENUE DU BERRY","post_code":"91940","city":"LES ULIS"},{"location":{"lng":"2.4194417","lat":"48.85485329999999"},"title":"FRANPRIX","address":"1 RUE EMILE ZOLA","post_code":"93100","city":"MONTREUIL"},{"location":{"lng":"2.4067638","lat":"48.8940998"},"title":"FRANPRIX","address":"Rue Victor Hugo","post_code":"93500","city":"PANTIN"},{"location":{"lng":"2.228892","lat":"48.832987"},"title":"FRANPRIX","address":"64 RUE DE S\u00e8vres","post_code":"92100","city":"BOULOGNE-BILLANCOURT"},{"location":{"lng":"2.3216542","lat":"48.833446"},"title":"FRANPRIX","address":"15 RUE DIDOT","post_code":"75014","city":"PARIS"},{"location":{"lng":"4.8312973","lat":"45.767827"},"title":"FRANPRIX","address":"3 PLACE TOBIE ROBATEL","post_code":"69001","city":"LYON"},{"location":{"lng":"2.2996489","lat":"48.9217672"},"title":"FRANPRIX","address":"47 RUE HENRI BARBUSSE","post_code":"92230","city":"GENNEVILLIERS"},{"location":{"lng":"2.1926663","lat":"48.81362559999999"},"title":"FRANPRIX","address":"855 AVENUE ROGER SALENGRO","post_code":"92370","city":"CHAVILLE"},{"location":{"lng":"2.4444246","lat":"48.8563307"},"title":"FRANPRIX","address":"54 AVENUE GABRIEL PERI","post_code":"93100","city":"MONTREUIL"},{"location":{"lng":"2.4022987","lat":"48.87713369999999"},"title":"FRANPRIX","address":"126-128 RUE HAXO","post_code":"75019","city":"PARIS"},{"location":{"lng":"2.23989","lat":"48.8076047"},"title":"FRANPRIX","address":"10 AVENUE LOUVOIS","post_code":"92190","city":"MEUDON"},{"location":{"lng":"2.4954735","lat":"48.8902435"},"title":"FRANPRIX","address":"6 RUE PHILOSOPHIE","post_code":"93140","city":"BONDY"},{"location":{"lng":"2.492137","lat":"48.9292756"},"title":"FRANPRIX","address":"14 BOULEVARD DE STRASBOURG","post_code":"93600","city":"AULNAY-SOUS-BOIS"},{"location":{"lng":"2.3397714","lat":"48.8948537"},"title":"FRANPRIX","address":"65 RUE DU POTEAU","post_code":"75018","city":"PARIS"},{"location":{"lng":"2.3121211","lat":"48.8858095"},"title":"FRANPRIX","address":"112 RUE CARDINET","post_code":"75017","city":"PARIS"},{"location":{"lng":"2.403393","lat":"48.7638978"},"title":"FRANPRIX","address":"12 AVENUE GAMBETTA","post_code":"94600","city":"CHOISY-LE-ROI"},{"location":{"lng":"2.3399573","lat":"48.8778202"},"title":"FRANPRIX","address":"22 RUE CHORON","post_code":"75009","city":"PARIS"},{"location":{"lng":"2.114238","lat":"48.773952"},"title":"FRANPRIX","address":"PLACE DU HAUT BUC","post_code":"78530","city":"BUC"},{"location":{"lng":"2.3194988","lat":"48.8580724"},"title":"FRANPRIX","address":"11 RUE CASIMIR PERRIER","post_code":"75007","city":"PARIS"},{"location":{"lng":"2.238278","lat":"48.8271778"},"title":"FRANPRIX","address":"64-66 RUE MARCEL BONTEMPS","post_code":"92100","city":"BOULOGNE-BILLANCOURT"},{"location":{"lng":"2.216396","lat":"48.9314381"},"title":"FRANPRIX","address":"1-13 RUE DE L'AGRICULTURE","post_code":"95870","city":"BEZONS"},{"location":{"lng":"2.2726925","lat":"48.91297369999999"},"title":"FRANPRIX","address":"44 RUE DES BOURGUIGNONS","post_code":"92600","city":"ASNIERES-SUR-SEINE"},{"location":{"lng":"1.8510736","lat":"48.911395"},"title":"FRANPRIX","address":"11 Chauss\u00e9e SAINT-VINCENT","post_code":"78580","city":"MAULE"},{"location":{"lng":"2.2728387","lat":"48.8281262"},"title":"FRANPRIX","address":"19 BOULEVARD DES Fr\u00e8res VOISINS","post_code":"75015","city":"PARIS"},{"location":{"lng":"2.4037587","lat":"48.8598729"},"title":"FRANPRIX","address":"114 RUE DE BAGNOLET","post_code":"75020","city":"PARIS"},{"location":{"lng":"2.4758406","lat":"48.7195054"},"title":"FRANPRIX","address":"1 rue Salvador Allende","post_code":"91560","city":"CROSNE"},{"location":{"lng":"2.5376925","lat":"48.67265380000001"},"title":"FRANPRIX","address":"6 RUE DE BOISSY SAINT LEGER","post_code":"91480","city":"QUINCY-SOUS-S\u00e9NART"},{"location":{"lng":"2.4853375","lat":"48.6145714"},"title":"FRANPRIX","address":"1 Place Saint-L\u00e9onard","post_code":"91100","city":"Corbeil-Essonnes"},{"location":{"lng":"2.3488481","lat":"48.8246604"},"title":"FRANPRIX","address":"76 RUE BOBILLOT","post_code":"75013","city":"PARIS"},{"location":{"lng":"2.3390914","lat":"48.8316999"},"title":"FRANPRIX","address":"5 RUE DAREAU","post_code":"75014","city":"PARIS"},{"location":{"lng":"2.2889496","lat":"48.8328863"},"title":"FRANPRIX","address":"405 RUE DE VAUGIRARD","post_code":"75015","city":"PARIS"},{"location":{"lng":"2.4029772","lat":"48.8709754"},"title":"FRANPRIX","address":"28 RUE SAINT FARGEAU","post_code":"75020","city":"PARIS"},{"location":{"lng":"2.3820904","lat":"48.913541"},"title":"FRANPRIX","address":"2 AVENUE DE LA REPUBLIQUE","post_code":"93300","city":"AUBERVILLIERS"},{"location":{"lng":"2.3769638","lat":"48.8659408"},"title":"FRANPRIX","address":"113 RUE Saint-Maur","post_code":"75011","city":"PARIS"},{"location":{"lng":"2.4314561","lat":"48.8441635"},"title":"FRANPRIX","address":"13 RUE DES VIGNERONS","post_code":"94300","city":"VINCENNES"},{"location":{"lng":"4.8321416","lat":"45.7661656"},"title":"FRANPRIX","address":"9 RUE DE LA PLATIERE","post_code":"69001","city":"LYON"},{"location":{"lng":"2.41402","lat":"48.7715978"},"title":"FRANPRIX","address":"64 RUE D'ALFORTVILLE","post_code":"94600","city":"CHOISY-LE-ROI"},{"location":{"lng":"2.3806706","lat":"48.8695289"},"title":"FRANPRIX","address":"64\/74 BOULEVARD DE BELLEVILLE","post_code":"75020","city":"PARIS"},{"location":{"lng":"2.1156444","lat":"48.6880359"},"title":"FRANPRIX","address":"3 PLACE DU MARCH\u00e9 NEUF","post_code":"91190","city":"GIF-SUR-YVETTE"},{"location":{"lng":"2.3033045","lat":"48.8848308"},"title":"FRANPRIX","address":"126 AVENUE DE WAGRAM","post_code":"75017","city":"PARIS"},{"location":{"lng":"4.3632021","lat":"43.8375288"},"title":"FRANPRIX","address":"10-12 BOULEVARD Amiral Coubert","post_code":"30000","city":"N\u00ceMES"},{"location":{"lng":"2.2341441","lat":"48.8357409"},"title":"FRANPRIX","address":"183 RUE GALLIENI","post_code":"92100","city":"BOULOGNE-BILLANCOURT"},{"location":{"lng":"5.726649099999999","lat":"45.1889639"},"title":"FRANPRIX","address":"9-11 RUE GUETAL","post_code":"38000","city":"GRENOBLE"},{"location":{"lng":"2.5316849","lat":"48.7910915"},"title":"FRANPRIX","address":"10 RUE D'AMBOILE","post_code":"94430","city":"Chennevi\u00e8res-sur-Marne"},{"location":{"lng":"2.3996992","lat":"48.8635882"},"title":"FRANPRIX","address":"192 RUE DES PYRENEES","post_code":"75020","city":"PARIS"},{"location":{"lng":"2.3813964","lat":"48.863413"},"title":"FRANPRIX","address":"65 RUE SERVAN","post_code":"75011","city":"PARIS"},{"location":{"lng":"2.3346844","lat":"48.8886321"},"title":"FRANPRIX","address":"44 RUE CAULINCOURT","post_code":"75018","city":"PARIS"},{"location":{"lng":"2.3597678","lat":"48.855226"},"title":"FRANPRIX","address":"135 RUE SAINT-ANTOINE","post_code":"75004","city":"PARIS"},{"location":{"lng":"2.2750608","lat":"48.8609904"},"title":"FRANPRIX","address":"35 BIS RUE DE LA POMPE","post_code":"75016","city":"PARIS"},{"location":{"lng":"2.3227111","lat":"48.8943759"},"title":"FRANPRIX","address":"10 RUE BARON","post_code":"75017","city":"PARIS"},{"location":{"lng":"2.5216054","lat":"48.83829919999999"},"title":"FRANPRIX","address":"70 GRANDE RUE GENERAL DE GAULLE","post_code":"94360","city":"BRY-Sur-MARNE"},{"location":{"lng":"2.2495809","lat":"48.58895219999999"},"title":"FRANPRIX","address":"23 PL DU MARCHE","post_code":"91290","city":"ARPAJON"},{"location":{"lng":"2.188053","lat":"48.69682299999999"},"title":"FRANPRIX","address":"RUE DU DR LAURIAT","post_code":"91400","city":"ORSAY"},{"location":{"lng":"2.6757175","lat":"48.7634074"},"title":"FRANPRIX","address":"RUE AUGUSTE HUDIER","post_code":"77330","city":"OZOIR-LA-FERRI\u00e8RE"},{"location":{"lng":"2.2974219","lat":"48.8409092"},"title":"FRANPRIX","address":"173 RUE LECOURBE","post_code":"75015","city":"PARIS"},{"location":{"lng":"2.348757","lat":"48.814777"},"title":"FRANPRIX","address":"67 RUE CHARLES FREROT","post_code":"94250","city":"GENTILLY"},{"location":{"lng":"2.2798489","lat":"48.84444509999999"},"title":"FRANPRIX","address":"32 RUE DE LA CONVENTION","post_code":"75015","city":"PARIS"},{"location":{"lng":"2.3466843","lat":"48.8356029"},"title":"FRANPRIX","address":"95 RUE BROCA","post_code":"75013","city":"PARIS"},{"location":{"lng":"2.222475","lat":"48.8670689"},"title":"FRANPRIX","address":"17 RUE CHEVREUL","post_code":"92150","city":"SURESNES"},{"location":{"lng":"2.3726868","lat":"48.8628442"},"title":"FRANPRIX","address":"92 BOULEBARD RICHARD LENOIR","post_code":"75011","city":"PARIS"},{"location":{"lng":"2.3261351","lat":"48.8239286"},"title":"FRANPRIX","address":"121 RUE DU GENERAL LECLERC","post_code":"75014","city":"PARIS"},{"location":{"lng":"2.3964529","lat":"48.8170704"},"title":"FRANPRIX","address":"19-23 RUE LENINE","post_code":"94200","city":"IVRY-SUR-SEINE"},{"location":{"lng":"5.3865736","lat":"43.2993227"},"title":"FRANPRIX","address":"10-12 BOULEVARD DE LA LIBERATION","post_code":"13001","city":"MARSEILLE"},{"location":{"lng":"5.4203543","lat":"43.3330891"},"title":"FRANPRIX","address":"92 AVENUE SAINT-JEROME","post_code":"13013","city":"MARSEILLE"},{"location":{"lng":"2.3726361","lat":"48.8670189"},"title":"FRANPRIX","address":"105 AVENUE PARMENTIER","post_code":"75011","city":"PARIS"},{"location":{"lng":"2.2242459","lat":"48.8836917"},"title":"FRANPRIX","address":"5-11 RUE PIERRE CURIE","post_code":"92800","city":"PUTEAUX"},{"location":{"lng":"5.1591144","lat":"47.1796814"},"title":"ATAC","address":"Route de Dijon Lieu dit la Corv\u00e9e aux Moines","post_code":"21110","city":"Aiserey"},{"location":{"lng":"3.2726282","lat":"46.9195243"},"title":"ATAC","address":"Rue Paul Vaillant Couturier Route de Decize","post_code":"58160","city":"Imphy"},{"location":{"lng":"5.408654299999999","lat":"47.3155987"},"title":"ATAC","address":"Rue de la Gare","post_code":"21270","city":"Pontailler-sur-Sa\u00f4ne"},{"location":{"lng":"3.7181436","lat":"48.0011802"},"title":"ATAC","address":"C. Cial Armance, 17 Avenue de l'Europe","post_code":"89600","city":"Saint-Florentin"},{"location":{"lng":"3.3530809","lat":"47.8764656"},"title":"BI1","address":"4 Rue de Neuilly","post_code":"89110","city":"Aillant-sur-Tholon"},{"location":{"lng":"3.963285299999999","lat":"46.7905994"},"title":"BI1","address":"Rue Ledru Rollin","post_code":"58170","city":"Luzy"},{"location":{"lng":"2.742631","lat":"47.853261"},"title":"BI1","address":"Rue Raymond Picault","post_code":"45290","city":"Nogent-sur-Vernisson"},{"location":{"lng":"4.9519555","lat":"46.4363873"},"title":"BI1","address":"Parc d'Activit\u00e9s Economiques de Pont de Vaux Est-Zone de L'Etang - Route de Saint-Trivier","post_code":"01190","city":"Saint-Benigne"},{"location":{"lng":"5.1576732","lat":"47.0103416"},"title":"BI1","address":"Route de Pagny ZI 'Le Terreau de L\u00e9e","post_code":"21250","city":"Seurre"},{"location":{"lng":"3.2885","lat":"47.73765"},"title":"BI1","address":"6 Rue de la Chatterie","post_code":"89130","city":"Toucy"},{"location":{"lng":"4.033139","lat":"46.27393"},"title":"BI1","address":"ZI Saint-Nizier","post_code":"71110","city":"Marcigny"},{"location":{"lng":"5.6125663","lat":"46.7556333"},"title":"ATAC","address":"10 Grande Rue","post_code":"39210","city":"Voiteur"},{"location":{"lng":"4.2366806","lat":"47.2809917"},"title":"BI1","address":"40 Rue de l'Ing Jean Bertin","post_code":"21210","city":"Saulieu"},{"location":{"lng":"6.2638475","lat":"46.2688348"},"title":"BI1","address":"453 Route des Voirons","post_code":"74140","city":"Veigy-Foncenex"},{"location":{"lng":"6.6701362","lat":"47.05776350000001"},"title":"BI1","address":"7 Rue Pierre Bercot","post_code":"25130","city":"Villers-le-Lac"},{"location":{"lng":"2.5781564","lat":"48.3239575"},"title":"ATAC","address":"Rue de l'Avenir, ZA","post_code":"77760","city":"La Chapelle-la-Reine"},{"location":{"lng":"3.5079212","lat":"47.4570433"},"title":"AUCHAN","address":"Route d'Orl\u00e9ans","post_code":"58500","city":"Clamecy"},{"location":{"lng":"2.92036","lat":"47.3860116"},"title":"AUCHAN","address":"D955A Zone du, Le Grand Champ","post_code":"58200","city":"Cosne-Cours-sur-Loire"},{"location":{"lng":"3.016469","lat":"47.187317"},"title":"AUCHAN","address":"Avenue Mar\u00e9chal Leclerc","post_code":"58400","city":"La Charit\u00e9-sur-Loire"},{"location":{"lng":"4.8759744","lat":"46.6314101"},"title":"AUCHAN","address":"Sur le Chemin Ferr\u00e9","post_code":"71240","city":"Sennecey-le-Grand"},{"location":{"lng":"2.761057","lat":"48.1795086"},"title":"AUCHAN","address":"Route d'\u00c9greville Centre commercial du Val de Loing","post_code":"77460","city":"Souppes-sur-Loing"},{"location":{"lng":"3.9997138","lat":"47.85018720000001"},"title":"AUCHAN","address":"Route de Dijon","post_code":"89700","city":"Tonnerre"},{"location":{"lng":"4.569817","lat":"47.873772"},"title":"AUCHAN","address":"Avenue No\u00ebl Navoizat Actip\u00f4le","post_code":"21400","city":"Ch\u00e2tillon-sur-Seine"},{"location":{"lng":"4.067586599999999","lat":"46.590808"},"title":"AUCHAN","address":"1 Rue Pierre B\u00e9r\u00e9govoy","post_code":"71130","city":"Gueugnon"},{"location":{"lng":"4.3523344","lat":"47.4826357"},"title":"AUCHAN","address":"Champ de la Perdrix, Parc des Rives de Seine","post_code":"21140","city":"Semur-en-Auxois"},{"location":{"lng":"3.90619","lat":"47.49837"},"title":"AUCHAN","address":"Rue du G\u00e9n\u00e9ral Leclerc, Route de Tonnerre","post_code":"89200","city":"Avallon"},{"location":{"lng":"6.8546961","lat":"49.1148582"},"title":"AUCHAN","address":"63 avenue Saint Jean","post_code":"57450","city":"Farebersviller"},{"location":{"lng":"7.3389769","lat":"47.7749329"},"title":"AUCHAN","address":"170 Rue des Romains","post_code":"68200","city":"Mulhouse"},{"location":{"lng":"3.2924364","lat":"48.1716669"},"title":"AUCHAN","address":"D1060 Auchan Sens - Centre commercial Porte de Bourgogne","post_code":"89100","city":"Sens"},{"location":{"lng":"-0.1028363","lat":"49.28416989999999"},"title":"G\u00c9ANT CASINO","address":"Boulevard Maurice Thorez","post_code":"14160","city":"DIVES-SUR-MER"},{"location":{"lng":"4.023739000000001","lat":"48.333928"},"title":"G\u00c9ANT CASINO","address":"Route de Paris, RN 19","post_code":"10600","city":"BARBEREY SAINT-SULPICE"},{"location":{"lng":"3.1726594","lat":"46.9868877"},"title":"G\u00c9ANT CASINO","address":"RUE BERNARD PALISSY, CENTRE COMMERCIAL DES BORDS DE LOIRE\u00a0","post_code":"58000","city":"NEVERS"},{"location":{"lng":"2.7357107","lat":"47.9742734"},"title":"G\u00c9ANT CASINO","address":"1459 Avenue d'Antibes","post_code":"45200","city":"AMILLY"},{"location":{"lng":"2.375863","lat":"49.86637899999999"},"title":"G\u00c9ANT CASINO","address":"Centre Commercial Grand A, Avenue Pil\u00e9as Fogg","post_code":"80440","city":"Glisy"},{"location":{"lng":"4.810298899999999","lat":"45.5746954"},"title":"G\u00c9ANT CASINO","address":"1515 Avenue Fr\u00e9d\u00e9ric Mistral","post_code":"38670","city":"CHASSE-SUR-RH\u00d4NE"},{"location":{"lng":"3.1779463","lat":"50.6925495"},"title":"G\u00c9ANT CASINO","address":"21 bis Grand' rue","post_code":"59100","city":"ROUBAIX"},{"location":{"lng":"0.6538676","lat":"47.3809179"},"title":"G\u00c9ANT CASINO","address":"Avenue du Couvent des Minimes","post_code":"37520","city":"La Riche"},{"location":{"lng":"-0.5546620999999999","lat":"47.452407"},"title":"G\u00c9ANT CASINO","address":"172 rue L\u00e9tandu\u00e8re","post_code":"49100","city":"ANGERS"},{"location":{"lng":"3.8399261","lat":"43.612041"},"title":"G\u00c9ANT CASINO","address":"129 Avenue de Lod\u00e8ve","post_code":"34070","city":"MONTPELLIER"},{"location":{"lng":"4.361491","lat":"43.8131035"},"title":"G\u00c9ANT CASINO","address":"200 Avenue du Docteur Claude Baillet","post_code":"30900","city":"N\u00ceMES COSTIERES"},{"location":{"lng":"2.252964","lat":"48.94425500000001"},"title":"G\u00c9ANT CASINO","address":"50 Avenue Mar\u00e9chal Foch, Centre Commerciel C\u00f4t\u00e9 Seine","post_code":"95100","city":"ARGENTEUIL"},{"location":{"lng":"2.3797819","lat":"47.1111815"},"title":"G\u00c9ANT CASINO","address":"548 Route d'Orl\u00e9ans","post_code":"18230","city":"Saint-Doulchard"},{"location":{"lng":"6.6292998","lat":"44.90439869999999"},"title":"G\u00c9ANT CASINO","address":"2 Avenue du Dauphin\u00e9, Centre Commercial Grand'Boucle","post_code":"5100","city":"BRIAN\u00c7ON"},{"location":{"lng":"-1.5411603","lat":"47.2821292"},"title":"G\u00c9ANT CASINO","address":"Rue de la Berangerais","post_code":"44240","city":"LA CHAPELLE-SUR-ERDRE"},{"location":{"lng":"-3.37427","lat":"48.7759448"},"title":"G\u00c9ANT CASINO","address":"Route de Perros Guirec","post_code":"22300","city":"LANNION"},{"location":{"lng":"-4.094823","lat":"47.9747201"},"title":"G\u00c9ANT CASINO","address":"163 route de B\u00e9nodet","post_code":"29000","city":"QUIMPER"},{"location":{"lng":"-4.4682591","lat":"48.4150619"},"title":"G\u00c9ANT CASINO","address":"Route de Gouesnou","post_code":"29200","city":"BREST"},{"location":{"lng":"-1.7234127","lat":"48.1805712"},"title":"G\u00c9ANT CASINO","address":"Route de Saint-Malo","post_code":"35760","city":"SAINT-GREGOIRE"},{"location":{"lng":"-2.7902675","lat":"48.5210069"},"title":"G\u00c9ANT CASINO","address":"3 Rond-Point Pablo Neruda, Centre Commercial Les Villages","post_code":"22000","city":"SAINT-BRIEUC"},{"location":{"lng":"-3.3474971","lat":"47.7634724"},"title":"G\u00c9ANT CASINO","address":"78 rue Ambroise Croizat","post_code":"56600","city":"LANESTER"},{"location":{"lng":"-3.3830674","lat":"47.7343308"},"title":"G\u00c9ANT CASINO","address":"6 Rue Monistrol","post_code":"56100","city":"LORIENT"},{"location":{"lng":"-3.8524034","lat":"48.5729585"},"title":"G\u00c9ANT CASINO","address":"Boulevard Saint-Martin, Centre Commercial Bretagnia","post_code":"29600","city":"Saint-Martin-des-Champs"},{"location":{"lng":"4.3747852","lat":"45.4111736"},"title":"G\u00c9ANT CASINO","address":"Chemin de la Croix de l'Orme, Centre Commercial La B\u00e9raudi\u00e8re","post_code":"42150","city":"LA RICAMARIE"},{"location":{"lng":"6.932443999999999","lat":"43.5316122"},"title":"G\u00c9ANT CASINO","address":"791 Avenue de Fr\u00e9jus, RN 7","post_code":"06210","city":"MANDELIEU LA NAOUPLE"},{"location":{"lng":"3.878861","lat":"45.0268"},"title":"G\u00c9ANT CASINO","address":"Avenue Jeanne D'Arc","post_code":"43750","city":"VALS-PRES-LE-PUY"},{"location":{"lng":"5.4194822","lat":"43.5336247"},"title":"G\u00c9ANT CASINO","address":"Avenue de Br\u00e9dasque, Centre Commercial Aix Ouest","post_code":"13090","city":"AIX-EN-PROVENCE"},{"location":{"lng":"4.934152999999999","lat":"44.9525219"},"title":"G\u00c9ANT CASINO","address":"Route de Grenoble","post_code":"26000","city":"VALENCE NORD"},{"location":{"lng":"4.7377768","lat":"44.5556637"},"title":"G\u00c9ANT CASINO","address":"24 Avenue John Kennedy","post_code":"26200","city":"MONTELIMAR"},{"location":{"lng":"4.6866639","lat":"45.2551187"},"title":"G\u00c9ANT CASINO","address":"130 rue de Pourrat","post_code":"07430","city":"DAVEZIEUX"},{"location":{"lng":"-0.8992110000000001","lat":"47.0422439"},"title":"G\u00c9ANT CASINO","address":"Avenue des sables","post_code":"49300","city":"CHOLET"},{"location":{"lng":"0.3733861","lat":"46.5740557"},"title":"G\u00c9ANT CASINO","address":"2 Avenue Lafayette","post_code":"86000","city":"POITIERS"},{"location":{"lng":"1.4469238","lat":"48.4345049"},"title":"G\u00c9ANT CASINO","address":"Rue de Touraine","post_code":"28110","city":"Luc\u00e9"},{"location":{"lng":"2.502897","lat":"48.7513567"},"title":"G\u00c9ANT CASINO","address":"Avenue Charles de Gaulle, Centre Commercial Boissy 2","post_code":"94470","city":"BOISSY-SAINT-LEGER"},{"location":{"lng":"-0.3833151","lat":"46.3397148"},"title":"G\u00c9ANT CASINO","address":"100 rue du Puits de la Ville Chauray","post_code":"79180","city":"NIORT"},{"location":{"lng":"-1.747607","lat":"46.48643209999999"},"title":"G\u00c9ANT CASINO","address":"15 rue du G\u00e9n\u00e9ral Montcalm, ZAC Pas du Bois","post_code":"85060","city":"LES SABLES D'OLONNE"},{"location":{"lng":"-2.2652304","lat":"47.2574701"},"title":"G\u00c9ANT CASINO","address":"332 route de la c\u00f4te D'amour","post_code":"44600","city":"SAINT-NAZAIRE OCEANIS"},{"location":{"lng":"2.3642745","lat":"48.8212937"},"title":"G\u00c9ANT CASINO","address":"Palce V\u00e9n\u00e9tie","post_code":"75013","city":"Paris"},{"location":{"lng":"2.3198944","lat":"48.6373155"},"title":"G\u00c9ANT CASINO","address":"All\u00e9e du Bois, Centre Commercial Grand Bois","post_code":"91240","city":"SAINT-MICHEL-SUR-ORGE"},{"location":{"lng":"1.2771046","lat":"45.8359016"},"title":"G\u00c9ANT CASINO","address":"38 avenue des casseaux","post_code":"87000","city":"LIMOGES"},{"location":{"lng":"1.5623326","lat":"45.1679823"},"title":"G\u00c9ANT CASINO","address":"2 rue Pasteur","post_code":"19360","city":"Malemort sur Correze"},{"location":{"lng":"0.18372","lat":"45.692939"},"title":"G\u00c9ANT CASINO","address":"RN 10, Centre Commercial les Grandes Chaumes","post_code":"16430","city":"Champniers"},{"location":{"lng":"2.3814585","lat":"43.2089595"},"title":"G\u00c9ANT CASINO","address":"2 Avenue du Souvenir Fran\u00e7ais","post_code":"11000","city":"Carcassonne"},{"location":{"lng":"2.4250403","lat":"44.9076944"},"title":"G\u00c9ANT CASINO","address":"87 avenue Charles de Gaulle","post_code":"15000","city":"AURILLAC"},{"location":{"lng":"-0.4249826","lat":"45.0127782"},"title":"G\u00c9ANT CASINO","address":"Avenue de l'Europ, ZAC la Garosse","post_code":"33240","city":"SAINT-ANDRE-DE-CUBZAC"},{"location":{"lng":"3.0690071","lat":"44.1169556"},"title":"G\u00c9ANT CASINO","address":"150 Boulevard Georges Brassens","post_code":"12100","city":"MILLAU"},{"location":{"lng":"5.7584403","lat":"45.18483"},"title":"G\u00c9ANT CASINO","address":"76 Avenue Gabriel P\u00e9ri","post_code":"38400","city":"SAINT-MARTIN-D'H\u00e8RES"},{"location":{"lng":"5.672599300000001","lat":"45.1988128"},"title":"G\u00c9ANT CASINO","address":"120 Boulevard Paul Langevin","post_code":"38600","city":"FONTAINE"},{"location":{"lng":"6.3631171","lat":"45.6604385"},"title":"G\u00c9ANT CASINO","address":"Chemin du Chiriac, ZA du Chiriac","post_code":"73200","city":"ALBERTVILLE"},{"location":{"lng":"6.2536478","lat":"46.1955575"},"title":"G\u00c9ANT CASINO","address":"14 rue de la R\u00e9sistance","post_code":"74100","city":"ANNEMASSE"},{"location":{"lng":"6.1051614","lat":"44.5686179"},"title":"G\u00c9ANT CASINO","address":"28 Boulevard de l'Orient","post_code":"05000","city":"GAP"},{"location":{"lng":"5.646580999999999","lat":"46.2531589"},"title":"G\u00c9ANT CASINO","address":"Rue du 19 mars 1962","post_code":"01100","city":"Arbent"},{"location":{"lng":"5.9051046","lat":"45.6751186"},"title":"G\u00c9ANT CASINO","address":"33 rue cl\u00e9ment ader","post_code":"73100","city":"AIX-LES-BAINS"},{"location":{"lng":"6.0687104","lat":"45.8629393"},"title":"G\u00c9ANT CASINO","address":"Avenue d'Aix-Les-bains","post_code":"74600","city":"Seynod"},{"location":{"lng":"-0.5279174999999999","lat":"47.468324"},"title":"G\u00c9ANT CASINO","address":"75 avenue Montaigne","post_code":"49000","city":"Angers"},{"location":{"lng":"4.9736043","lat":"49.6850669"},"title":"G\u00c9ANT CASINO","address":"RN Centre Commercial Mac Mahon","post_code":"08140","city":"BAZEILLES"},{"location":{"lng":"-1.5462278","lat":"48.8147823"},"title":"G\u00c9ANT CASINO","address":"189 rue de Jersey","post_code":"50380","city":"SAINT-PAIR-SUR-MER"},{"location":{"lng":"3.9212748","lat":"43.6048904"},"title":"G\u00c9ANT CASINO","address":"Rue Georges Meli\u00e8s, Centre Commercial Odysseum","post_code":"34172","city":"MONTPELLIER"},{"location":{"lng":"5.4803593","lat":"43.2937752"},"title":"G\u00c9ANT CASINO","address":"Route de la Sabli\u00e8re","post_code":"13011","city":"MARSEILLE LA VALENTINE"},{"location":{"lng":"6.836907999999999","lat":"47.4968288"},"title":"G\u00c9ANT CASINO","address":"4 Rue Philippe Goudey","post_code":"25400","city":"EXINCOURT"},{"location":{"lng":"5.9471054","lat":"47.2154014"},"title":"G\u00c9ANT CASINO","address":"Route de Dole, Centre Commercial Chateaufarine","post_code":"25000","city":"BESAN\u00c7ON"},{"location":{"lng":"5.1422453","lat":"48.1055685"},"title":"G\u00c9ANT CASINO","address":"7 Avenue de la R\u00e9publique","post_code":"52000","city":"CHAUMONT"},{"location":{"lng":"4.6355757","lat":"43.6667507"},"title":"G\u00c9ANT CASINO","address":"Avenue Mar\u00e9chal Juin","post_code":"13200","city":"ARLES"},{"location":{"lng":"5.5432457","lat":"46.6726672"},"title":"G\u00c9ANT CASINO","address":"Rue des Salines","post_code":"39000","city":"LONS-LE-SAUNIER"},{"location":{"lng":"5.4903866","lat":"47.0837362"},"title":"G\u00c9ANT CASINO","address":"Rue G\u00e9n\u00e9ral Bethouard ZI et Portuaire","post_code":"39100","city":"DOLE"},{"location":{"lng":"7.5563924","lat":"47.5832902"},"title":"G\u00c9ANT CASINO","address":"45 avenue G\u00e9n\u00e9ral de Gaulle","post_code":"68300","city":"SAINT-LOUIS"},{"location":{"lng":"3.8883193","lat":"43.5873046"},"title":"G\u00c9ANT CASINO","address":"504 Avenue du Mas d'Argelliers","post_code":"34000","city":"MONTPELLIER"},{"location":{"lng":"3.2615053","lat":"43.3413993"},"title":"G\u00c9ANT CASINO","address":"Les all\u00e9es G\u00e9ant, ZAC de Montimaran","post_code":"34500","city":"BEZIERS"},{"location":{"lng":"3.1187044","lat":"45.7836003"},"title":"G\u00c9ANT CASINO","address":"Boulevard Saint-Jean","post_code":"63100","city":"CLERMONT-FERRAND"},{"location":{"lng":"0.6332588","lat":"44.1820819"},"title":"G\u00c9ANT CASINO","address":"Avenue de Bigorre","post_code":"47550","city":"BOE"},{"location":{"lng":"5.080263","lat":"43.6358134"},"title":"G\u00c9ANT CASINO","address":"Avenue du 22 Ao\u00fbt 1944","post_code":"13300","city":"SALON-DE-PROVENCE"},{"location":{"lng":"6.7336249","lat":"43.4243169"},"title":"G\u00c9ANT CASINO","address":"480 Avenue Eug\u00e8ne Joly, RN 98","post_code":"83600","city":"FREJUS"},{"location":{"lng":"2.2734726","lat":"43.5341425"},"title":"G\u00c9ANT CASINO","address":"Route de Mazamet","post_code":"81100","city":"CASTRES"},{"location":{"lng":"2.1708735","lat":"43.9348373"},"title":"G\u00c9ANT CASINO","address":"2 rue Francisco Goya","post_code":"81000","city":"ALBI"},{"location":{"lng":"0.1017099","lat":"43.1859921"},"title":"G\u00c9ANT CASINO","address":"Route de Bagn\u00e8res","post_code":"65310","city":"LALOUBERE"},{"location":{"lng":"1.9705663","lat":"43.3113225"},"title":"G\u00c9ANT CASINO","address":"129 Avenue Monseigneure de Langle","post_code":"11400","city":"CASTELNAUDARY"},{"location":{"lng":"7.1349331","lat":"43.63089189999999"},"title":"G\u00c9ANT CASINO","address":"Route du Bord de mer","post_code":"06270","city":"VILLENEUVE-LOUBET"},{"location":{"lng":"4.4210423","lat":"45.4410526"},"title":"G\u00c9ANT CASINO","address":"140 rue de la Montat, Centre Commercial Monthieu","post_code":"42000","city":"SAINT-ETIENNE"},{"location":{"lng":"4.375691","lat":"46.675665"},"title":"G\u00c9ANT CASINO","address":"Boulevard de Lattre de Tassigny","post_code":"71300","city":"MONTCEAU-LES-MINES"},{"location":{"lng":"6.452973099999999","lat":"48.1593564"},"title":"G\u00c9ANT CASINO","address":"30 rue de Remiremont","post_code":"88000","city":"EPINAL"},{"location":{"lng":"4.833859299999999","lat":"46.7962645"},"title":"G\u00c9ANT CASINO","address":"Rue Thalie, Centre Commercial La Thalie","post_code":"71100","city":"CHALON-SUR-SA\u00d4NE"},{"location":{"lng":"5.0220873","lat":"47.2822533"},"title":"G\u00c9ANT CASINO","address":"Rue Longvic, Centre Commercial Chen\u00f4ve","post_code":"21300","city":"Chen\u00f4ve"},{"location":{"lng":"6.5788236","lat":"43.2624601"},"title":"G\u00c9ANT CASINO","address":"120 Rond-Point de la Foux","post_code":"83580","city":"GASSIN"},{"location":{"lng":"4.4408607","lat":"46.7809921"},"title":"G\u00c9ANT CASINO","address":"les 20 Arpents","post_code":"71210","city":"TORCY"},{"location":{"lng":"5.031399899999999","lat":"47.3556232"},"title":"G\u00c9ANT CASINO","address":"Rue des Pr\u00e8s Potets","post_code":"21121","city":"Fontaine-L\u00e8s-Dijon"},{"location":{"lng":"6.336546999999999","lat":"46.9102357"},"title":"G\u00c9ANT CASINO","address":"66 rue de salins","post_code":"25300","city":"PONTARLIER"},{"location":{"lng":"5.053037199999999","lat":"45.0350854"},"title":"G\u00c9ANT CASINO","address":"Boulevard Alpes-Provence","post_code":"26300","city":"BOURG-DE-P\u00e9age"},{"location":{"lng":"5.3619629","lat":"43.4154329"},"title":"G\u00c9ANT CASINO","address":"Plan de Campagne, Centre Commercial Barn\u00e9oud","post_code":"13170","city":"Les Pennes Mirabeau"},{"location":{"lng":"3.571424","lat":"47.81051799999999"},"title":"G\u00c9ANT CASINO","address":"Avenue Haussmann","post_code":"89000","city":"AUXERRE"},{"location":{"lng":"2.9828615","lat":"43.1601613"},"title":"G\u00c9ANT CASINO","address":"Route de Perpignan","post_code":"11100","city":"NARBONNE"},{"location":{"lng":"2.305788","lat":"43.210005"},"title":"G\u00c9ANT CASINO","address":"Boulevard Henry Bouffet","post_code":"11000","city":"Carcassonne"},{"location":{"lng":"1.400153","lat":"43.6948277"},"title":"G\u00c9ANT CASINO","address":"Rue des Usines","post_code":"31150","city":"FENOUILLET"},{"location":{"lng":"2.5916224","lat":"44.3716312"},"title":"G\u00c9ANT CASINO","address":"Route d'Espalion","post_code":"12850","city":"Onet Le Ch\u00e2teau"},{"location":{"lng":"0.1834724","lat":"44.50479970000001"},"title":"G\u00c9ANT CASINO","address":"Route de P\u00e9rigueux","post_code":"47200","city":"MARMANDE"},{"location":{"lng":"-0.6402958999999999","lat":"44.7857486"},"title":"G\u00c9ANT CASINO","address":"1 Bis Avenue Gustave Eiffel","post_code":"33600","city":"PESSAC"},{"location":{"lng":"1.3937915","lat":"43.5694713"},"title":"G\u00c9ANT CASINO","address":"Place Edouard Bouilli\u00e8res","post_code":"31100","city":"TOULOUSE"},{"location":{"lng":"2.2587382","lat":"44.5551796"},"title":"G\u00c9ANT CASINO","address":"2 Avenue Paul Ramadier","post_code":"12300","city":"DECAZEVILLE"},{"location":{"lng":"4.9771093","lat":"43.4970467"},"title":"G\u00c9ANT CASINO","address":"Route de Fos sur mer, Centre Commercial Les Cognets","post_code":"13800","city":"ISTRES"},{"location":{"lng":"-0.3793047","lat":"43.3267456"},"title":"G\u00c9ANT CASINO","address":"21 Avenue Didier Daurat","post_code":"64140","city":"LONS"},{"location":{"lng":"1.3323113","lat":"43.99000059999999"},"title":"G\u00c9ANT CASINO","address":"1155 Avenue de l'Europe","post_code":"82000","city":"MONTAUBAN"},{"location":{"lng":"4.8790746","lat":"44.9076904"},"title":"G\u00c9ANT CASINO","address":"Avenue de Provence Quartier Chantecouriol","post_code":"26000","city":"VALENCE"},{"location":{"lng":"4.8361854","lat":"43.9288148"},"title":"G\u00c9ANT CASINO","address":"162 Avenue Pierre Semard","post_code":"84000","city":"AVIGNON"},{"location":{"lng":"6.107219","lat":"43.1155116"},"title":"G\u00c9ANT CASINO","address":"Chemin du Roubaud, Centre Commercial Centr'Azur","post_code":"83400","city":"HYERES"},{"location":{"lng":"4.7328817","lat":"45.9958332"},"title":"G\u00c9ANT CASINO","address":"Boulevard Burdeau, ZAC du Garet","post_code":"69400","city":"VILLEFRANCHE-SUR-SA\u00d4NE"},{"location":{"lng":"-0.5637428999999999","lat":"44.7764168"},"title":"G\u00c9ANT CASINO","address":"Route de Toulouse, Centre Commercial Bordeaux SUD","post_code":"33140","city":"VILLENAVE D'ORNON"},{"location":{"lng":"4.2764681","lat":"45.3771634"},"title":"G\u00c9ANT CASINO","address":"12 rue de Chazeau","post_code":"42700","city":"FIRMINY"},{"location":{"lng":"-1.5030132","lat":"43.4850237"},"title":"G\u00c9ANT CASINO","address":"77 Avenue de Bayonne","post_code":"64600","city":"ANGLET"},{"location":{"lng":"9.4430927","lat":"42.70596159999999"},"title":"G\u00c9ANT CASINO","address":"RN193","post_code":"20200","city":"BASTIA"},{"location":{"lng":"9.4529117","lat":"42.7083708"},"title":"G\u00c9ANT CASINO","address":"Centre Commercial Port Toga","post_code":"20200","city":"BASTIA"},{"location":{"lng":"8.77233","lat":"41.9519001"},"title":"G\u00c9ANT CASINO","address":"Centre Commercial La Rocade","post_code":"20000","city":"AJACCIO"},{"location":{"lng":"9.278882200000002","lat":"41.6050081"},"title":"G\u00c9ANT CASINO","address":"ZI Poretta","post_code":"20137","city":"PORTO-VECCHIO"},{"location":{"lng":"6.671224","lat":"45.20231870000001"},"title":"CASINO SUPERMARCH\u00e9","address":"Avenue aristide briand ","post_code":"73500","city":"Modane "},{"location":{"lng":"5.893346600000001","lat":"45.2710391"},"title":"CASINO SUPERMARCH\u00e9","address":"Avenue de belledone Z.I. de crolles","post_code":"38190","city":"Crolles"},{"location":{"lng":"6.2148965","lat":"46.1908531"},"title":"CASINO SUPERMARCH\u00e9","address":"97 Route de gen\u00e8ve ","post_code":"74240","city":"Gaillard"},{"location":{"lng":"6.630720999999999","lat":"45.870766"},"title":"CASINO SUPERMARCH\u00e9","address":"271 route de sallanches ","post_code":"74120","city":"Meg\u00e8ve"},{"location":{"lng":"6.585357999999999","lat":"46.40013099999999"},"title":"CASINO SUPERMARCH\u00e9","address":"Le carr\u00e9 lumi\u00e8re ","post_code":"74500","city":"Evian les bains "},{"location":{"lng":"5.8582622","lat":"45.2135262"},"title":"CASINO SUPERMARCH\u00e9","address":"D\u00e9partementale 523","post_code":"38420","city":"Le Versoud "},{"location":{"lng":"6.033028","lat":"45.057255"},"title":"CASINO SUPERMARCH\u00e9","address":"Le pr\u00e9 des roches ","post_code":"38520","city":"Bourg d'oisans "},{"location":{"lng":"6.3466923","lat":"45.2785818"},"title":"CASINO SUPERMARCH\u00e9","address":"Le forum saint antoine, centre commercial saint jean de maurienne","post_code":"73300","city":"Saint Jean de Maurienne"},{"location":{"lng":"6.4708726","lat":"46.36864990000001"},"title":"CASINO SUPERMARCH\u00e9","address":"27 avenue du g\u00e9n\u00e9ral de gaulle, centre commercial \u00e9toile ","post_code":"74200","city":"Thonon les bains "},{"location":{"lng":"6.1057581","lat":"45.90737790000001"},"title":"CASINO SUPERMARCH\u00e9","address":"21 avenue de la r\u00e9publique r\u00e9sidence l\u00e9onard de vinci","post_code":"74960","city":"Cran Gevrier "},{"location":{"lng":"5.8292337","lat":"45.2483274"},"title":"CASINO SUPERMARCH\u00e9","address":"La fontaine d'am\u00e9lie ","post_code":"38330","city":"Saint Ismier "},{"location":{"lng":"5.7889861","lat":"44.9314773"},"title":"CASINO SUPERMARCH\u00e9","address":"Z.I. de la mure ","post_code":"38350","city":"Susville "},{"location":{"lng":"5.6780586","lat":"45.0537088"},"title":"CASINO SUPERMARCH\u00e9","address":"Rue du 8 mai 1945","post_code":"38450","city":"Vif "},{"location":{"lng":"6.4002086","lat":"46.1406703"},"title":"CASINO SUPERMARCH\u00e9","address":"Rue des tattes ","post_code":"74250","city":"Viuz-en-sallaz"},{"location":{"lng":"6.135961699999999","lat":"45.9075492"},"title":"CASINO SUPERMARCH\u00e9","address":"50 Avenue du parmelan ","post_code":"74000","city":"Annecy"},{"location":{"lng":"6.267231799999999","lat":"46.1234434"},"title":"CASINO SUPERMARCH\u00e9","address":"240 impasse des contamines","post_code":"74930","city":"Pers jussy"},{"location":{"lng":"6.8707862","lat":"45.9253513"},"title":"CASINO SUPERMARCH\u00e9","address":"17 avenue du mont blanc, centre commercial alpina","post_code":"74400","city":"Chamonix"},{"location":{"lng":"6.0392138","lat":"45.9615642"},"title":"CASINO SUPERMARCH\u00e9","address":"Place docteur dubois","post_code":"74330","city":"La balme de sillingy"},{"location":{"lng":"6.1452208","lat":"45.9152074"},"title":"CASINO SUPERMARCH\u00e9","address":"7 place du 18 juin 1940","post_code":"74940","city":"Annecy"},{"location":{"lng":"5.7059393","lat":"45.15152260000001"},"title":"CASINO SUPERMARCH\u00e9","address":"46 cours jean jaur\u00e8s ","post_code":"38130","city":"Echirolles"},{"location":{"lng":"0.323153","lat":"46.621591"},"title":"CASINO SUPERMARCH\u00e9","address":"Route de chadonchamps","post_code":"86440","city":"Migne Auxances "},{"location":{"lng":"-1.4943904","lat":"46.42462570000001"},"title":"CASINO SUPERMARCH\u00e9","address":"Rue georges cl\u00e9menceau ","post_code":"85560","city":"Longeville sur mer"},{"location":{"lng":"-0.4896962","lat":"46.3417083"},"title":"CASINO SUPERMARCH\u00e9","address":"130 avenue de nantes ","post_code":"79000","city":"Niort"},{"location":{"lng":"0.1637769","lat":"45.0175798"},"title":"CASINO SUPERMARCH\u00e9","address":"Route de riberac ","post_code":"24700","city":"Montpon menestrol"},{"location":{"lng":"-1.1027071","lat":"44.7453649"},"title":"CASINO SUPERMARCH\u00e9","address":"270 boulevard de la r\u00e9publique ","post_code":"33510","city":"Andernos les bains"},{"location":{"lng":"-0.5180212","lat":"44.855018"},"title":"CASINO SUPERMARCH\u00e9","address":"Avenue roger schwob","post_code":"33150","city":"Bordeaux "},{"location":{"lng":"-0.7750606999999999","lat":"44.8102029"},"title":"CASINO SUPERMARCH\u00e9","address":"All\u00e9e Jean Jacques Rousseau","post_code":"33127","city":"Saint-Jean-d'illac"},{"location":{"lng":"-0.6493504","lat":"44.84110440000001"},"title":"CASINO SUPERMARCH\u00e9","address":"1 rue Beaumarchais","post_code":"33700","city":"M\u00e9rignac"},{"location":{"lng":"-1.0592851","lat":"46.5614138"},"title":"CASINO SUPERMARCH\u00e9","address":"132 route de Nantes","post_code":"85210","city":"Sainte-Hermine"},{"location":{"lng":"-0.3697044","lat":"44.9216261"},"title":"CASINO SUPERMARCH\u00e9","address":"7 Avenue Cavernes, Hameau Mau Cailloux","post_code":"33450","city":"IZON"},{"location":{"lng":"-0.6204807","lat":"44.82811"},"title":"CASINO SUPERMARCH\u00e9","address":"2 rue des Conviviales","post_code":"33700","city":"M\u00e9rignac"},{"location":{"lng":"-1.1644513","lat":"44.6580349"},"title":"CASINO SUPERMARCH\u00e9","address":"Rue Georges M\u00e9ran","post_code":"33120","city":"Arcachon"},{"location":{"lng":"-0.5912742","lat":"44.8071344"},"title":"CASINO SUPERMARCH\u00e9","address":"412 Cours de la Lib\u00e9ration","post_code":"33400","city":"Talence"},{"location":{"lng":"-0.611313","lat":"44.8536696"},"title":"CASINO SUPERMARCH\u00e9","address":"102 Avenue du G\u00e9n\u00e9ral Leclerc","post_code":"33200","city":"Bordeaux"},{"location":{"lng":"6.1393682","lat":"46.3533789"},"title":"CASINO SUPERMARCH\u00e9","address":"Les eaux vives 250 Avnue de Gen\u00e8ve","post_code":"01220","city":"Divonne-Les-Bains"},{"location":{"lng":"5.834305","lat":"46.3832"},"title":"CASINO SUPERMARCH\u00e9","address":"Rue du plan d'acier","post_code":"39200","city":"Saint-Claude"},{"location":{"lng":"6.0313069","lat":"47.2482271"},"title":"CASINO SUPERMARCH\u00e9","address":"52 rue de Belfort, ZAC des Chaprais","post_code":"25000","city":"Besan\u00e7on"},{"location":{"lng":"6.0152949","lat":"47.2538996"},"title":"CASINO SUPERMARCH\u00e9","address":"53 rue de V\u00e9soul","post_code":"25000","city":"Besan\u00e7on"},{"location":{"lng":"5.994349499999999","lat":"47.2313565"},"title":"CASINO SUPERMARCH\u00e9","address":"Place de la Bascule Saint-Ferjeux","post_code":"25000","city":"Besan\u00e7on"},{"location":{"lng":"6.0692897","lat":"47.43179989999999"},"title":"CASINO SUPERMARCH\u00e9","address":"ZA de la Charri\u00e8re","post_code":"70190","city":"RIOZ"},{"location":{"lng":"6.6105603","lat":"47.0577675"},"title":"CASINO SUPERMARCH\u00e9","address":"4 rue du clos jeune","post_code":"25500","city":"MORTEAU"},{"location":{"lng":"5.2618167","lat":"47.1037001"},"title":"CASINO SUPERMARCH\u00e9","address":"Avenue du Bastion des Charmilles","post_code":"21170","city":"Saint-Jean-de-l'Osne"},{"location":{"lng":"4.841492","lat":"47.0201495"},"title":"CASINO SUPERMARCH\u00e9","address":"28 rue du Faubourg Madeleine","post_code":"21200","city":"Beaune"},{"location":{"lng":"5.589335300000001","lat":"47.4539079"},"title":"CASINO SUPERMARCH\u00e9","address":"Rue Charles Couyba","post_code":"70100","city":"Arc-L\u00e8s-Gray"},{"location":{"lng":"5.3914493","lat":"47.1915534"},"title":"CASINO SUPERMARCH\u00e9","address":"9 rue du colonel Redoutey","post_code":"21130","city":"AUXONNE"},{"location":{"lng":"5.0555958","lat":"47.3089179"},"title":"CASINO SUPERMARCH\u00e9","address":"Rue d'Auxonne","post_code":"21000","city":"DIJON"},{"location":{"lng":"4.7545741","lat":"46.9097949"},"title":"CASINO SUPERMARCH\u00e9","address":"Avenue du G\u00e9n\u00e9ral De Gaulle, ZAC 190 ZN","post_code":"71150","city":"CHAGNY"},{"location":{"lng":"6.3031285","lat":"47.8819507"},"title":"CASINO SUPERMARCH\u00e9","address":"Avenue Jacques Paris","post_code":"70320","city":"CORBENAY"},{"location":{"lng":"6.366706499999999","lat":"47.812738"},"title":"CASINO SUPERMARCH\u00e9","address":"Avenue du mar\u00e9chal turenne ","post_code":"70300","city":"Luxeuil les bains"},{"location":{"lng":"7.417974300000001","lat":"47.7311798"},"title":"CASINO SUPERMARCH\u00e9","address":"63 rue charles de gaulle","post_code":"68440","city":"Habsheim "},{"location":{"lng":"5.047599","lat":"47.3271581"},"title":"CASINO SUPERMARCH\u00e9","address":"8 boulevard georges cl\u00e9menceau","post_code":"21000","city":"Dijon"},{"location":{"lng":"-3.0818166","lat":"47.5802635"},"title":"CASINO SUPERMARCH\u00e9","address":"Avenue des salines","post_code":"56340","city":"Carnac "},{"location":{"lng":"-3.162563","lat":"47.3351379"},"title":"CASINO SUPERMARCH\u00e9","address":"Route de bangor","post_code":"56360","city":"Le palais"},{"location":{"lng":"-4.317010499999999","lat":"48.5745939"},"title":"CASINO SUPERMARCH\u00e9","address":"Boulevard des fr\u00e8res lumi\u00e8re ","post_code":"29260","city":"Lesneven"},{"location":{"lng":"-4.285092200000001","lat":"47.90028479999999"},"title":"CASINO SUPERMARCH\u00e9","address":"26 rue henri lautr\u00e9dou","post_code":"29720","city":"Ploneour lanvern"},{"location":{"lng":"-2.755479","lat":"47.5290816"},"title":"CASINO SUPERMARCH\u00e9","address":"Kerblanquette","post_code":"56370","city":"Sarzeau"},{"location":{"lng":"-3.8690692","lat":"47.85759669999999"},"title":"CASINO SUPERMARCH\u00e9","address":"Route de concarneau","post_code":"29910","city":"Tregunc"},{"location":{"lng":"-3.1098533","lat":"47.48416719999999"},"title":"CASINO SUPERMARCH\u00e9","address":"Route de port haliguen ","post_code":"56170","city":"Quiberon"},{"location":{"lng":"-4.0719128","lat":"47.980853"},"title":"CASINO SUPERMARCH\u00e9","address":"2 avenue de ty douar ZAC de ty douar","post_code":"29000","city":"Quimper"},{"location":{"lng":"-1.6164952","lat":"47.2106897"},"title":"CASINO SUPERMARCH\u00e9","address":"15 rue de saint nazaire ","post_code":"44800","city":"Saint herblain"},{"location":{"lng":"-3.4759297","lat":"48.6100404"},"title":"CASINO SUPERMARCH\u00e9","address":"Rue du g\u00e9n\u00e9ral de gaulle ","post_code":"22420","city":"Plouaret"},{"location":{"lng":"-1.542629","lat":"47.2264596"},"title":"CASINO SUPERMARCH\u00e9","address":"103 bis et 105 rue du g\u00e9n\u00e9ral buat","post_code":"44000","city":"Nantes "},{"location":{"lng":"2.2285534","lat":"45.50106"},"title":"CASINO SUPERMARCH\u00e9","address":"Route de tulle ","post_code":"19250","city":"Meymac "},{"location":{"lng":"1.7344796","lat":"45.7375322"},"title":"CASINO SUPERMARCH\u00e9","address":"Route de Limoges","post_code":"87120","city":"EYMOUTIERS"},{"location":{"lng":"1.237136","lat":"45.87982419999999"},"title":"CASINO SUPERMARCH\u00e9","address":"187 Avenue de Limoges","post_code":"87270","city":"LIMOGES"},{"location":{"lng":"0.6610976","lat":"43.8510013"},"title":"CASINO SUPERMARCH\u00e9","address":"Place du Foirail","post_code":"32500","city":"FLEURANCE"},{"location":{"lng":"0.6978113","lat":"44.4051699"},"title":"CASINO SUPERMARCH\u00e9","address":"10 Avenue Jacques Bordenave","post_code":"47300","city":"VILLENEUVE-SUR-LOT"},{"location":{"lng":"0.9497166","lat":"44.4928465"},"title":"CASINO SUPERMARCH\u00e9","address":"Route de P\u00e9rigueux","post_code":"47500","city":"FUMEL"},{"location":{"lng":"0.597332","lat":"44.194419"},"title":"CASINO SUPERMARCH\u00e9","address":"Lieu Dit la Cassagne la Demi-Lune","post_code":"47520","city":"Le Passage"},{"location":{"lng":"0.8879172","lat":"44.1093368"},"title":"CASINO SUPERMARCH\u00e9","address":"Boulevard Victor Guilhem et Rue Aristide Briand","post_code":"82400","city":"VALENCE D'AGEN"},{"location":{"lng":"0.7588573","lat":"44.525378"},"title":"CASINO SUPERMARCH\u00e9","address":"Route de Villeneuve Lot Vignes de la Justice","post_code":"47150","city":"MONFLANQUIN"},{"location":{"lng":"1.441289","lat":"44.4444536"},"title":"CASINO SUPERMARCH\u00e9","address":"Place \u00e9milien imbert","post_code":"46000","city":"CAHORS"},{"location":{"lng":"1.9305456","lat":"45.0918362"},"title":"CASINO SUPERMARCH\u00e9","address":"Rue Douvisis, Lieu dit Moulin Bas","post_code":"19400","city":"ARGENTAT"},{"location":{"lng":"1.3085859","lat":"45.8352446"},"title":"CASINO SUPERMARCH\u00e9","address":"Rue du Pr\u00e9 Peyroux, Le pr\u00e9 Peyroux","post_code":"87350","city":"LIMOGES"},{"location":{"lng":"1.2104572","lat":"45.522535"},"title":"CASINO SUPERMARCH\u00e9","address":"Route de Limoges","post_code":"87500","city":"Saint-Yrieix-Le-Clos"},{"location":{"lng":"1.4709543","lat":"44.9002934"},"title":"CASINO SUPERMARCH\u00e9","address":"Rue des Aubuges","post_code":"46200","city":"SOUILLAC"},{"location":{"lng":"7.1127753","lat":"43.5688542"},"title":"CASINO SUPERMARCH\u00e9","address":"138 Boulevard Wilson","post_code":"6160","city":"Juan-Les-Pins"},{"location":{"lng":"6.356544899999999","lat":"43.4912247"},"title":"CASINO SUPERMARCH\u00e9","address":"Route de Toulon","post_code":"83510","city":"LORGUES"},{"location":{"lng":"6.2528106","lat":"43.5590675"},"title":"CASINO SUPERMARCH\u00e9","address":"Lieu dit Saint Romain","post_code":"83690","city":"Salernes"},{"location":{"lng":"7.0575635","lat":"43.5774497"},"title":"CASINO SUPERMARCH\u00e9","address":"Avenue du tapis vert ","post_code":"06220","city":"Vallauris"},{"location":{"lng":"6.783192199999999","lat":"43.4273849"},"title":"CASINO SUPERMARCH\u00e9","address":"Boulevard Jean moulin ","post_code":"83700","city":"Saint Raphael"},{"location":{"lng":"6.5660352","lat":"43.4744914"},"title":"CASINO SUPERMARCH\u00e9","address":"Boulevard de la lib\u00e9ration","post_code":"83490","city":"Le Muy "},{"location":{"lng":"5.6425307","lat":"43.3680105"},"title":"CASINO SUPERMARCH\u00e9","address":"RN 560 Quartier de la glaci\u00e8re","post_code":"13390","city":"Auriol"},{"location":{"lng":"5.6860328","lat":"43.4494027"},"title":"CASINO SUPERMARCH\u00e9","address":"Chemin du loup ","post_code":"13530","city":" Trets"},{"location":{"lng":"6.0586375","lat":"43.4082708"},"title":"CASINO SUPERMARCH\u00e9","address":"Pr\u00e9 de paques","post_code":"83170","city":"Brignoles"},{"location":{"lng":"6.7493096","lat":"43.4214701"},"title":"CASINO SUPERMARCH\u00e9","address":"Rue de la m\u00e9diterran\u00e9e ","post_code":"83600","city":"Port Fr\u00e9gus "},{"location":{"lng":"6.754982","lat":"43.437813"},"title":"CASINO SUPERMARCH\u00e9","address":"Avenue andr\u00e9 l\u00e9otard ","post_code":"83600","city":"Fr\u00e9jus "},{"location":{"lng":"6.059489800000001","lat":"43.3319554"},"title":"CASINO SUPERMARCH\u00e9","address":"CD 554 Les clappiers longs","post_code":"83136","city":"Gareoult "},{"location":{"lng":"6.9958266","lat":"43.5697508"},"title":"CASINO SUPERMARCH\u00e9","address":"Avenue du g\u00e9n\u00e9ral de gaulle ZAC les mimosas ","post_code":"06110","city":"Le cannet "},{"location":{"lng":"6.754309399999999","lat":"43.4313024"},"title":"CASINO SUPERMARCH\u00e9","address":"26 Rue du Dr Donnadieu ","post_code":"83600","city":"Frejus"},{"location":{"lng":"7.0297662","lat":"43.5527101"},"title":"CASINO SUPERMARCH\u00e9","address":"54 Boulevard d'alsace","post_code":"06400","city":"Cannes"},{"location":{"lng":"3.1679407","lat":"43.30841969999999"},"title":"CASINO SUPERMARCH\u00e9","address":"Route de Narbonne ","post_code":"34440","city":"Colombiers "},{"location":{"lng":"3.831862","lat":"43.648472"},"title":"CASINO SUPERMARCH\u00e9","address":"2 Rue nicolas appert ","post_code":"34760","city":"Grabels"},{"location":{"lng":"3.2161649","lat":"43.3444095"},"title":"CASINO SUPERMARCH\u00e9","address":"5 All\u00e9e paul riquet ","post_code":"34500","city":"B\u00e9ziers "},{"location":{"lng":"2.7077493","lat":"43.711975"},"title":"CASINO SUPERMARCH\u00e9","address":"Centre commercial bel air","post_code":"81230","city":"Lacaune "},{"location":{"lng":"4.5029386","lat":"43.8266846"},"title":"CASINO SUPERMARCH\u00e9","address":"Route de beaucaire ","post_code":"30129","city":"Redessan"},{"location":{"lng":"4.280640700000001","lat":"43.7674323"},"title":"CASINO SUPERMARCH\u00e9","address":"Chemin de calvisson RN 113","post_code":"30620","city":"Bernis "},{"location":{"lng":"4.2334929","lat":"43.8077968"},"title":"CASINO SUPERMARCH\u00e9","address":"Route de n\u00eemes, lieu dit campastier ","post_code":"30980","city":"Saint dionisy"},{"location":{"lng":"3.8460792","lat":"43.6410913"},"title":"CASINO SUPERMARCH\u00e9","address":"Porte de ganges","post_code":"34000","city":"Montpellier"},{"location":{"lng":"2.947514","lat":"43.263051"},"title":"CASINO SUPERMARCH\u00e9","address":"Route d'ouveillan","post_code":"11590","city":"Sallele d'Aude "},{"location":{"lng":"2.994792","lat":"43.176238"},"title":"CASINO SUPERMARCH\u00e9","address":"Avenue du g\u00e9n\u00e9ral leclerc lotissement de stcrescent","post_code":"11100","city":"Narbonne"},{"location":{"lng":"3.2436512","lat":"43.3580423"},"title":"CASINO SUPERMARCH\u00e9","address":"Route de p\u00e9zenas","post_code":"34500","city":"B\u00e9ziers "},{"location":{"lng":"3.8527955","lat":"43.5866272"},"title":"CASINO SUPERMARCH\u00e9","address":"59 Route de toulouse","post_code":"34000","city":"Montpellier "},{"location":{"lng":"4.0678238","lat":"45.6100279"},"title":"CASINO SUPERMARCH\u00e9","address":"Boulevard duguet ","post_code":"42600","city":"Montbrison"},{"location":{"lng":"4.1678357","lat":"46.1561744"},"title":"CASINO SUPERMARCH\u00e9","address":"La montalay ","post_code":"42190","city":"Charlieu"},{"location":{"lng":"4.2467066","lat":"45.5064667"},"title":"CASINO SUPERMARCH\u00e9","address":"146 Route de bonson ","post_code":"42170","city":"Saint just Saint rambert "},{"location":{"lng":"4.066041999999999","lat":"46.029495"},"title":"CASINO SUPERMARCH\u00e9","address":"30 Route de clermont","post_code":"42300","city":"Roanne"},{"location":{"lng":"4.3837281","lat":"45.45446630000001"},"title":"CASINO SUPERMARCH\u00e9","address":"60 Rue de bergson","post_code":"42000","city":"Saint Etienne "},{"location":{"lng":"4.2193584","lat":"45.37828200000001"},"title":"CASINO SUPERMARCH\u00e9","address":"Route de firminy","post_code":"43110","city":"Aurec sur loire"},{"location":{"lng":"3.3868982","lat":"45.2895692"},"title":"CASINO SUPERMARCH\u00e9","address":"Avenue L\u00e9on Blum","post_code":"43100","city":"Brioude "},{"location":{"lng":"3.4592517","lat":"46.1331543"},"title":"CASINO SUPERMARCH\u00e9","address":"Place de la r\u00e9publique ","post_code":"03300","city":"Cusset "},{"location":{"lng":"4.2175366","lat":"45.7424663"},"title":"CASINO SUPERMARCH\u00e9","address":"6 Grande rue de randan ","post_code":"42110","city":"Feurs"},{"location":{"lng":"4.314113","lat":"45.58372199999999"},"title":"CASINO SUPERMARCH\u00e9","address":"Richelande ","post_code":"42330","city":"Saint galmier "},{"location":{"lng":"3.3935688","lat":"46.3191904"},"title":"CASINO SUPERMARCH\u00e9","address":"90 route de chazeuil ","post_code":"03150","city":"Varennes sur allier"},{"location":{"lng":"3.0724611","lat":"45.7795132"},"title":"CASINO SUPERMARCH\u00e9","address":"40 Boulevard berthelot ","post_code":"63000","city":"Clermont"},{"location":{"lng":"3.888759299999999","lat":"45.04130540000001"},"title":"CASINO SUPERMARCH\u00e9","address":"2 Avenue de la dentelle ","post_code":"43000","city":"Le puy"},{"location":{"lng":"4.357503299999999","lat":"45.479357"},"title":"CASINO SUPERMARCH\u00e9","address":"RN 82 - Lieu dit ratarieux ","post_code":"42270","city":"Saint Etienne "},{"location":{"lng":"3.0809278","lat":"45.7712785"},"title":"CASINO SUPERMARCH\u00e9","address":"6 Avenue max dormoy","post_code":"63000","city":"Clermont"},{"location":{"lng":"4.4112139","lat":"45.4216577"},"title":"CASINO SUPERMARCH\u00e9","address":"115 cours fauriel ","post_code":"42100","city":"Saint etienne "},{"location":{"lng":"4.8286403","lat":"45.7297395"},"title":"CASINO SUPERMARCH\u00e9","address":"64-68 all\u00e9e d'Italie place des pavillons","post_code":"69007","city":"Lyon"},{"location":{"lng":"4.842577500000001","lat":"45.7547615"},"title":"CASINO SUPERMARCH\u00e9","address":"7 place gabriel peri","post_code":"69007","city":"Lyon"},{"location":{"lng":"4.8556792","lat":"45.7507811"},"title":"CASINO SUPERMARCH\u00e9","address":"126 cours gambetta ","post_code":"69007","city":"Lyon "},{"location":{"lng":"4.778864899999999","lat":"45.763489"},"title":"CASINO SUPERMARCH\u00e9","address":"62 promenade des tuileries 92 Avenue charles de gaulle","post_code":"69160","city":"Tassin la demi lune"},{"location":{"lng":"4.8448494","lat":"45.7476725"},"title":"CASINO SUPERMARCH\u00e9","address":"7 et 9 rue marc bloch","post_code":"69007","city":"Lyon"},{"location":{"lng":"4.8434506","lat":"45.8761367"},"title":"CASINO SUPERMARCH\u00e9","address":"6 rue pollet","post_code":"69250","city":"Neuville sur saone"},{"location":{"lng":"4.8689177","lat":"45.7611358"},"title":"CASINO SUPERMARCH\u00e9","address":"59 rue baraban","post_code":"69003","city":"Lyon"},{"location":{"lng":"4.881908399999999","lat":"45.7325261"},"title":"CASINO SUPERMARCH\u00e9","address":"105 Avenue jean mermoz","post_code":"69008","city":"Lyon"},{"location":{"lng":"4.8669695","lat":"45.7374001"},"title":"CASINO SUPERMARCH\u00e9","address":"321 Avenue berthelot ","post_code":"69008","city":"Lyon"},{"location":{"lng":"5.1750356","lat":"45.9982929"},"title":"CASINO SUPERMARCH\u00e9","address":"Lieu dit le petit etang","post_code":"01320","city":"Chalamont"},{"location":{"lng":"4.8735134","lat":"45.82366349999999"},"title":"CASINO SUPERMARCH\u00e9","address":"24 Boulevard castellane ","post_code":"69580","city":"Sathonay camp"},{"location":{"lng":"4.809008599999999","lat":"45.7841386"},"title":"CASINO SUPERMARCH\u00e9","address":"74-76 rue de saint cyr","post_code":"69009","city":"Lyon"},{"location":{"lng":"4.8251865","lat":"45.8004994"},"title":"CASINO SUPERMARCH\u00e9","address":"27 rue hector berlioz zac de saintrambert","post_code":"69009","city":"Lyon"},{"location":{"lng":"4.8653859","lat":"45.7709357"},"title":"CASINO SUPERMARCH\u00e9","address":"31 bis cours emile zola ","post_code":"69100","city":"Villeurbanne "},{"location":{"lng":"5.2378832","lat":"46.2083155"},"title":"CASINO SUPERMARCH\u00e9","address":"1 Boulevard john kennedy","post_code":"01000","city":"Bourg en bresse"},{"location":{"lng":"4.910018099999999","lat":"45.7503338"},"title":"CASINO SUPERMARCH\u00e9","address":"296 Route de genas ","post_code":"69500","city":"Bron "},{"location":{"lng":"4.913469","lat":"45.774141"},"title":"CASINO SUPERMARCH\u00e9","address":"Boulevard G.P\u00e9ri","post_code":"69120","city":"Vaulx en velin "},{"location":{"lng":"4.7973035","lat":"45.7418346"},"title":"CASINO SUPERMARCH\u00e9","address":"28 Avenue maurice jarrosson","post_code":"69110","city":"Sainte foy jarrosson"},{"location":{"lng":"5.0168596","lat":"45.6970399"},"title":"CASINO SUPERMARCH\u00e9","address":"RN 6","post_code":"69720","city":"Saint Bonnet de mure"},{"location":{"lng":"5.7208539","lat":"45.1880052"},"title":"CASINO SUPERMARCH\u00e9","address":"26-28 curs b\u00e9riat ","post_code":"38000","city":"Grenoble "},{"location":{"lng":"5.25763","lat":"45.392052"},"title":"CASINO SUPERMARCH\u00e9","address":"Rue salep\u00e9tri\u00e8re","post_code":"38260","city":"La cote saint andre "},{"location":{"lng":"5.578084","lat":"45.6285797"},"title":"CASINO SUPERMARCH\u00e9","address":"74 route de savoie","post_code":"38630","city":"Les avenieres"},{"location":{"lng":"5.1547145","lat":"45.6124269"},"title":"CASINO SUPERMARCH\u00e9","address":"Rue serge mauroit lieu dit st bonnet","post_code":"38090","city":"Villefontaine "},{"location":{"lng":"5.127762199999999","lat":"45.5016668"},"title":"CASINO SUPERMARCH\u00e9","address":"Route des echarri\u00e8res","post_code":"38440","city":"Saint jean de bournay"},{"location":{"lng":"4.9663714","lat":"45.67705"},"title":"CASINO SUPERMARCH\u00e9","address":"Route d'heyrieux ","post_code":"69780","city":"Saint pierre de chandieu"},{"location":{"lng":"4.8715114","lat":"45.6967453"},"title":"CASINO SUPERMARCH\u00e9","address":"2 rue lounes matoub, centre commercial venissy","post_code":"69650","city":"Venissieux "},{"location":{"lng":"4.9584522","lat":"45.66578000000001"},"title":"CASINO SUPERMARCH\u00e9","address":"Rue du 19 mars 62, centre commercial de la halle","post_code":"69780","city":"Moins"},{"location":{"lng":"5.692504","lat":"45.176418"},"title":"CASINO SUPERMARCH\u00e9","address":"24 Rue de la fauconni\u00e8re, centre commercial de la fauconni\u00e8re ","post_code":"38170","city":"Seyssinet pariset"},{"location":{"lng":"4.882696","lat":"45.6994143"},"title":"CASINO SUPERMARCH\u00e9","address":"16-18 Avenue marcel paul","post_code":"69650","city":"Lyon "},{"location":{"lng":"4.6781231","lat":"45.6191637"},"title":"CASINO SUPERMARCH\u00e9","address":"Rue louis guillaumond","post_code":"69440","city":"Monrnant "},{"location":{"lng":"4.9083529","lat":"45.7335399"},"title":"CASINO SUPERMARCH\u00e9","address":"142-144 avenue franklin roosevelt ","post_code":"69672","city":"Bron "},{"location":{"lng":"5.4717667","lat":"45.6670768"},"title":"CASINO SUPERMARCH\u00e9","address":"RD 1075 lieu dit le bou","post_code":"38510","city":"Vezeronce curtin"},{"location":{"lng":"5.7119816","lat":"45.1804589"},"title":"CASINO SUPERMARCH\u00e9","address":"24 bis boulevard joseph vallier ","post_code":"38000","city":"Grenoble "},{"location":{"lng":"4.881908399999999","lat":"45.7325261"},"title":"CASINO SUPERMARCH\u00e9","address":"105 Avenue jean mermoz","post_code":"69008","city":"Lyon"},{"location":{"lng":"5.3922748","lat":"43.30545530000001"},"title":"CASINO SUPERMARCH\u00e9","address":"56 Boulevard camille flammarion","post_code":"13001","city":"Marseille"},{"location":{"lng":"5.3846687","lat":"43.2835522"},"title":"CASINO SUPERMARCH\u00e9","address":"42 Avenue du prado ","post_code":"13006","city":"Marseille "},{"location":{"lng":"5.357590999999999","lat":"43.290382"},"title":"CASINO SUPERMARCH\u00e9","address":"16 rue c\u00e9sar aleman ","post_code":"13007","city":"Marseille"},{"location":{"lng":"5.3766726","lat":"43.34899770000001"},"title":"CASINO SUPERMARCH\u00e9","address":"47 chemin fontainieu saint joseph","post_code":"13014","city":"Marseille "},{"location":{"lng":"5.3968375","lat":"43.3023929"},"title":"CASINO SUPERMARCH\u00e9","address":"4 avenue mar\u00e9chal foch ","post_code":"13004","city":"Marseille"},{"location":{"lng":"5.389927699999999","lat":"43.26764499999999"},"title":"CASINO SUPERMARCH\u00e9","address":"39 avenue de mazargues quartier saint giniez ","post_code":"13008","city":"Marseille"},{"location":{"lng":"5.4171137","lat":"43.246163"},"title":"CASINO SUPERMARCH\u00e9","address":"Avenue de lattre de tassigny ","post_code":"13009","city":"Marseille"},{"location":{"lng":"5.443548499999999","lat":"43.2959112"},"title":"CASINO SUPERMARCH\u00e9","address":"81 Avenue william booth","post_code":"13012","city":"Marseille"},{"location":{"lng":"5.3951004","lat":"43.2596465"},"title":"CASINO SUPERMARCH\u00e9","address":"365 Avenue de mazargues ","post_code":"13008","city":"Marseille "},{"location":{"lng":"5.4228469","lat":"43.2529194"},"title":"CASINO SUPERMARCH\u00e9","address":"83 Boulevard du redon ","post_code":"13009","city":"Marseille "},{"location":{"lng":"5.3719545","lat":"43.3056924"},"title":"CASINO SUPERMARCH\u00e9","address":"11 Boulevard de paris et 5 rue forbin ","post_code":"13002","city":"Marseille"},{"location":{"lng":"5.375318","lat":"43.261681"},"title":"CASINO SUPERMARCH\u00e9","address":"595 avenue du prado promenade de la plage","post_code":"13008","city":"Marseille "},{"location":{"lng":"5.399503999999999","lat":"43.291044"},"title":"CASINO SUPERMARCH\u00e9","address":"22 Boulevard jean moulin","post_code":"13005","city":"Marseille"},{"location":{"lng":"5.402461499999999","lat":"43.2627276"},"title":"CASINO SUPERMARCH\u00e9","address":"19 rue mignard nouveau parc s\u00e9vign\u00e9","post_code":"13009","city":"Marseille"},{"location":{"lng":"6.9993323","lat":"43.673218"},"title":"CASINO SUPERMARCH\u00e9","address":"Route de nice","post_code":"06650","city":"Le rouret "},{"location":{"lng":"7.1060925","lat":"43.7234629"},"title":"CASINO SUPERMARCH\u00e9","address":"44 Avenue foch","post_code":"06140","city":"Vence"},{"location":{"lng":"7.2560856","lat":"43.6989131"},"title":"CASINO SUPERMARCH\u00e9","address":"45 bis boulevard gambetta ","post_code":"06000","city":"Nice"},{"location":{"lng":"7.1627985","lat":"43.6585034"},"title":"CASINO SUPERMARCH\u00e9","address":"25 avenue du g\u00e9n\u00e9ral leclerc ","post_code":"06170","city":"Cros de cagnes "},{"location":{"lng":"7.1158741","lat":"43.5682781"},"title":"CASINO SUPERMARCH\u00e9","address":"60 chemin des sables, centre commercial palais des congr\u00e8s","post_code":"06600","city":"Antibes "},{"location":{"lng":"7.1104512","lat":"43.5903021"},"title":"CASINO SUPERMARCH\u00e9","address":"70 avenue philippe rochat ","post_code":"06600","city":"Antibes "},{"location":{"lng":"6.9767289","lat":"43.6144911"},"title":"CASINO SUPERMARCH\u00e9","address":"1006 chemin des gourettes ","post_code":"06370","city":"Mouans Sartoux "},{"location":{"lng":"7.1320861","lat":"43.6634161"},"title":"CASINO SUPERMARCH\u00e9","address":"Quartier des Malvans","post_code":"06800","city":"CAGNES"},{"location":{"lng":"6.507619500000001","lat":"43.8526854"},"title":"CASINO SUPERMARCH\u00e9","address":"Route Digne","post_code":"04120","city":"CASTELLANE"},{"location":{"lng":"6.91238","lat":"43.6409947"},"title":"CASINO SUPERMARCH\u00e9","address":"Avenue F\u00e9lix Raybaud, Quartier Saint-Jacques","post_code":"06130","city":"GRASSE"},{"location":{"lng":"7.284368400000001","lat":"43.7123491"},"title":"CASINO SUPERMARCH\u00e9","address":"28 Bis Boulevard Jean Baptiste Verany","post_code":"06300","city":"NICE"},{"location":{"lng":"7.1068492","lat":"43.5766545"},"title":"CASINO SUPERMARCH\u00e9","address":"Rue Nicolas Aussel","post_code":"06600","city":"ANTIBES"},{"location":{"lng":"7.2442517","lat":"43.6918902"},"title":"CASINO SUPERMARCH\u00e9","address":"Angle Avenue de Bellet et Avenue Gloria","post_code":"06200","city":"NICE"},{"location":{"lng":"7.2560662","lat":"43.7260753"},"title":"CASINO SUPERMARCH\u00e9","address":"Angle Place de la Fontaine du Temple et Boulevard Compte de Falicon","post_code":"06100","city":"NICE"},{"location":{"lng":"7.2560856","lat":"43.6989131"},"title":"CASINO SUPERMARCH\u00e9","address":"45 bis Boulevard Gambetta","post_code":"06000","city":"NICE"},{"location":{"lng":"7.268777","lat":"43.701425"},"title":"CASINO SUPERMARCH\u00e9","address":"24 rue Deudon","post_code":"06000","city":"NICE"},{"location":{"lng":"7.226817500000001","lat":"43.6752544"},"title":"CASINO SUPERMARCH\u00e9","address":"2 Boulevard Ren\u00e9 Cassin","post_code":"06200","city":"NICE"},{"location":{"lng":"2.3857126","lat":"48.8676448"},"title":"CASINO SUPERMARCH\u00e9","address":"28-34 rue de M\u00e9nilmontant","post_code":"75020","city":"PARIS"},{"location":{"lng":"2.4100147","lat":"48.7663649"},"title":"CASINO SUPERMARCH\u00e9","address":"2 Avenue Jean Jaur\u00e8s Pont-De-Choisy","post_code":"94600","city":"PONT-DE-CHOISY"},{"location":{"lng":"6.1744337","lat":"49.103291"},"title":"CASINO SUPERMARCH\u00e9","address":"29 rue Saint-Pierre","post_code":"57000","city":"METZ"},{"location":{"lng":"4.7243505","lat":"49.770134"},"title":"CASINO SUPERMARCH\u00e9","address":"7 Avenue Forest","post_code":"08000","city":"CHARLEVILLE-M\u00e9ZI\u00e8RES"},{"location":{"lng":"2.3963396","lat":"48.8568518"},"title":"CASINO SUPERMARCH\u00e9","address":"27-31 rue de Bagnolet","post_code":"75020","city":"PARIS"},{"location":{"lng":"2.374283","lat":"48.8891605"},"title":"CASINO SUPERMARCH\u00e9","address":"77 Rue de Flandre","post_code":"75019","city":"PARIS"},{"location":{"lng":"2.4130763","lat":"48.8794255"},"title":"CASINO SUPERMARCH\u00e9","address":"Rue de Paris, Rue Francine Fromond","post_code":"93260","city":"LES LILAS"},{"location":{"lng":"2.7050953","lat":"48.8273889"},"title":"CASINO SUPERMARCH\u00e9","address":"4 Avenue James de Rothschild","post_code":"77164","city":"Ferri\u00e8res-en-Brie"},{"location":{"lng":"2.4188389","lat":"48.8151109"},"title":"CASINO SUPERMARCH\u00e9","address":"Rue Eug\u00e8ne Renault","post_code":"94700","city":"MAISONS-ALFORT"},{"location":{"lng":"5.162432","lat":"48.7732069"},"title":"CASINO SUPERMARCH\u00e9","address":"26 Boulevard de la Rochelle","post_code":"55920","city":"BAR-LE-DUC"},{"location":{"lng":"2.4710907","lat":"48.804758"},"title":"CASINO SUPERMARCH\u00e9","address":"46 rue du pont de Cr\u00e9teil","post_code":"94100","city":"Saint-Maur-Des-Foss\u00e9s"},{"location":{"lng":"2.5142821","lat":"48.7952255"},"title":"CASINO SUPERMARCH\u00e9","address":"15 Avenue du Mesnil","post_code":"94210","city":"Saint-Maur-Des-Foss\u00e9s"},{"location":{"lng":"2.3974676","lat":"48.84754179999999"},"title":"CASINO SUPERMARCH\u00e9","address":"26 Bis et 28 place de la Nation","post_code":"75012","city":"PARIS"},{"location":{"lng":"2.423585","lat":"48.894031"},"title":"CASINO SUPERMARCH\u00e9","address":"200 Avenue Jean Lolive","post_code":"93500","city":"PANTIN"},{"location":{"lng":"-0.028842","lat":"49.0224856"},"title":"CASINO SUPERMARCH\u00e9","address":"Route de Lisieux","post_code":"14170","city":"SAINT-PIERRE-SUR-DIVES"},{"location":{"lng":"1.6085257","lat":"50.7218342"},"title":"CASINO SUPERMARCH\u00e9","address":"Place Louis Lumi\u00e8re","post_code":"62200","city":"BOULOGNE-SUR-MER"},{"location":{"lng":"-1.2302314","lat":"48.8535912"},"title":"CASINO SUPERMARCH\u00e9","address":"Rond-Point des Estuaires","post_code":"50800","city":"VILLEDIEU-LES-PO\u00caLES"},{"location":{"lng":"-1.5841729","lat":"48.8432433"},"title":"CASINO SUPERMARCH\u00e9","address":"Rue de la Gare","post_code":"50350","city":"Donville-Les-Bains"},{"location":{"lng":"0.9044434000000001","lat":"49.830105"},"title":"CASINO SUPERMARCH\u00e9","address":"Hameau du Buquet","post_code":"76740","city":"LA GAILLARDE"},{"location":{"lng":"2.497161","lat":"49.8992247"},"title":"CASINO SUPERMARCH\u00e9","address":"Rue Hippolyte Noiret","post_code":"80800","city":"FOUILLOY"},{"location":{"lng":"2.0094069","lat":"49.0493901"},"title":"CASINO SUPERMARCH\u00e9","address":"7 Boulevard des Merveilles","post_code":"95800","city":"CERGY"},{"location":{"lng":"2.217005","lat":"49.111625"},"title":"CASINO SUPERMARCH\u00e9","address":"12 Rue Saint-Lazare","post_code":"95290","city":"L'ISLE-ADAM"},{"location":{"lng":"2.3033293","lat":"48.9033277"},"title":"CASINO SUPERMARCH\u00e9","address":"101 Boulevard Jean Jaur\u00e8s","post_code":"92110","city":"CLICHY"},{"location":{"lng":"2.2904976","lat":"48.9165214"},"title":"CASINO SUPERMARCH\u00e9","address":"98 Boulevard Voltaire, ZAC du M\u00e9tro, ilot F","post_code":"92600","city":"Asni\u00e8res-M\u00e9tro"},{"location":{"lng":"2.3070945","lat":"48.902503"},"title":"CASINO SUPERMARCH\u00e9","address":"78 rue Martre","post_code":"92110","city":"CLICHY"},{"location":{"lng":"2.1877916","lat":"48.9245578"},"title":"CASINO SUPERMARCH\u00e9","address":"Place Michelet","post_code":"78800","city":"HOUILLES"},{"location":{"lng":"0.2808084","lat":"48.0631384"},"title":"CASINO SUPERMARCH\u00e9","address":"ZAC de l'Epine","post_code":"72460","city":"Savign\u00e9-L'\u00e9v\u00eaque"},{"location":{"lng":"2.2833208","lat":"48.8664182"},"title":"CASINO SUPERMARCH\u00e9","address":"16 rue des Belles Feuilles","post_code":"75016","city":"PARIS"},{"location":{"lng":"2.1459258","lat":"48.9465583"},"title":"CASINO SUPERMARCH\u00e9","address":"Avenue de Longueil","post_code":"78600","city":"MAISONS-LAFFITTE"},{"location":{"lng":"2.1860078","lat":"48.8067163"},"title":"CASINO SUPERMARCH\u00e9","address":"1811 Avenue Roger Salengro","post_code":"92370","city":"CHAVILLE"},{"location":{"lng":"2.0421979","lat":"48.9280171"},"title":"CASINO SUPERMARCH\u00e9","address":"30 Avenue du CEP","post_code":"78300","city":"POISSY"},{"location":{"lng":"2.1975119","lat":"48.9577234"},"title":"CASINO SUPERMARCH\u00e9","address":"14 Place des Arts","post_code":"95240","city":"CORMEILLES-EN-PARISIS"},{"location":{"lng":"1.8997312","lat":"49.0109901"},"title":"CASINO SUPERMARCH\u00e9","address":"60 rue de Vexin","post_code":"78250","city":"HARDRICOURT"},{"location":{"lng":"2.0461507","lat":"48.9767737"},"title":"CASINO SUPERMARCH\u00e9","address":"4 rue de Triel","post_code":"78570","city":"ANDR\u00e9SY"},{"location":{"lng":"2.209611","lat":"48.8637992"},"title":"CASINO SUPERMARCH\u00e9","address":"48 Avenue Jean Jaur\u00e8s","post_code":"92150","city":"SURESNES"},{"location":{"lng":"2.1802721","lat":"48.9115219"},"title":"CASINO SUPERMARCH\u00e9","address":"11 Avenue du Mar\u00e9chal Juin","post_code":"78420","city":"CARRI\u00e8RES-SUR-SEINE"},{"location":{"lng":"3.901834","lat":"47.49105"},"title":"CASINO SUPERMARCH\u00e9","address":"Avenue de la Morlande","post_code":"89200","city":"AVALLON"},{"location":{"lng":"4.0762861","lat":"48.2881497"},"title":"CASINO SUPERMARCH\u00e9","address":"3 rue de la Mission","post_code":"10000","city":"TROYES"},{"location":{"lng":"2.7083487","lat":"48.26704059999999"},"title":"CASINO SUPERMARCH\u00e9","address":"Rue du G\u00e9n\u00e9ral de Gaulle","post_code":"77140","city":"NEMOURS"},{"location":{"lng":"3.2958715","lat":"48.0881993"},"title":"CASINO SUPERMARCH\u00e9","address":"Rue braubach","post_code":"89500","city":"Villeneuve sur yonne "},{"location":{"lng":"2.2758958","lat":"48.8618995"},"title":"CASINO SUPERMARCH\u00e9","address":"50-60 rue de la pompe","post_code":"75016","city":"Paris"},{"location":{"lng":"2.3633614","lat":"48.8032361"},"title":"CASINO SUPERMARCH\u00e9","address":"29B rue des guipons ","post_code":"94800","city":"Villejuif"},{"location":{"lng":"2.3176432","lat":"48.8415313"},"title":"CASINO SUPERMARCH\u00e9","address":"32 Boulevard vaugirard ","post_code":"75015","city":"Paris"},{"location":{"lng":"2.2820113","lat":"48.83651589999999"},"title":"CASINO SUPERMARCH\u00e9","address":"352 rue lecourbe ","post_code":"75015","city":"Paris "},{"location":{"lng":"2.59597","lat":"48.55981999999999"},"title":"CASINO SUPERMARCH\u00e9","address":"Route de saint leu","post_code":"77240","city":"Cesson la for\u00eat "},{"location":{"lng":"4.3338809","lat":"47.6214281"},"title":"CASINO SUPERMARCH\u00e9","address":"Place gambetta","post_code":"21500","city":"Montbard "},{"location":{"lng":"2.7531315","lat":"48.4327859"},"title":"CASINO SUPERMARCH\u00e9","address":"44 Routes d'h\u00e9ricy","post_code":"77870","city":"Vulaines "},{"location":{"lng":"3.1395736","lat":"48.4772533"},"title":"CASINO SUPERMARCH\u00e9","address":"2 rue du montpensier ","post_code":"77520","city":"Donnemarie dontilly"},{"location":{"lng":"2.3228453","lat":"48.8012095"},"title":"CASINO SUPERMARCH\u00e9","address":"Angle rue de verdun et rue A. briand RN 20","post_code":"92220","city":"Bagneux "},{"location":{"lng":"5.2496483","lat":"43.36734389999999"},"title":"CASINO SUPERMARCH\u00e9","address":"RN 568 la carrairade ","post_code":"13740","city":"Le rove"},{"location":{"lng":"5.6030542","lat":"43.1900104"},"title":"CASINO SUPERMARCH\u00e9","address":"Quartier pignet de rohan carrefour de lattre de tassigny","post_code":"13600","city":"La ciotat"},{"location":{"lng":"5.6121598","lat":"43.1953255"},"title":"CASINO SUPERMARCH\u00e9","address":"Avenue guillaume dulac ","post_code":"13600","city":"La ciotat "},{"location":{"lng":"5.554911199999999","lat":"43.44746869999999"},"title":"CASINO SUPERMARCH\u00e9","address":"Lotissement grand vallat ","post_code":"13710","city":"Fuveau "},{"location":{"lng":"5.6948045","lat":"43.1846747"},"title":"CASINO SUPERMARCH\u00e9","address":"ZAC des pradeaux ","post_code":"83270","city":"Saint cyr sur mer"},{"location":{"lng":"5.44126","lat":"43.5283083"},"title":"CASINO SUPERMARCH\u00e9","address":"Boulevard des infirmi\u00e8res ","post_code":"13100","city":"Aix "},{"location":{"lng":"5.5697952","lat":"43.3016495"},"title":"CASINO SUPERMARCH\u00e9","address":"33 Avenue roger salengro quartier pin vert","post_code":"13400","city":"Aubagne "},{"location":{"lng":"4.803088","lat":"43.3922891"},"title":"CASINO SUPERMARCH\u00e9","address":"2 esplanade de la paix ZAC de maillebarge ","post_code":"13230","city":"Port Saint louis "},{"location":{"lng":"5.2348497","lat":"43.418476"},"title":"CASINO SUPERMARCH\u00e9","address":"Avenue jacques pr\u00e9vert ZAC de la lauve","post_code":"13730","city":"Saint victoret "},{"location":{"lng":"5.137154499999999","lat":"43.3305522"},"title":"CASINO SUPERMARCH\u00e9","address":"76 avenue draio de la mar ","post_code":"13620","city":"Carry le rouet"},{"location":{"lng":"5.5433666","lat":"43.2834783"},"title":"CASINO SUPERMARCH\u00e9","address":"RN 8 quartier le charrel ","post_code":"13400","city":"Aubagne "},{"location":{"lng":"5.418340100000001","lat":"43.3254469"},"title":"CASINO SUPERMARCH\u00e9","address":"55 avenue de la rose ","post_code":"13013","city":"Marseille"},{"location":{"lng":"5.490562","lat":"43.4768182"},"title":"CASINO SUPERMARCH\u00e9","address":"Rond point de la croix D58","post_code":"13590","city":"Meyreuil"},{"location":{"lng":"5.3866314","lat":"43.3236619"},"title":"CASINO SUPERMARCH\u00e9","address":"Boulevard C. Moretti traverse des rosiers","post_code":"13014","city":"Marseille"},{"location":{"lng":"5.4205453","lat":"43.3410656"},"title":"CASINO SUPERMARCH\u00e9","address":"Angle avenue ch\u00e2teau gombert et notre dame de la consolation","post_code":"13013","city":"Marseille"},{"location":{"lng":"5.439259499999999","lat":"43.52967719999999"},"title":"CASINO SUPERMARCH\u00e9","address":"1 avenue de lattre de tassigny ","post_code":"13090","city":"Aix "},{"location":{"lng":"1.449466","lat":"43.602856"},"title":"CASINO SUPERMARCH\u00e9","address":"51 bis rue du rempart saint etienne espace saint georges","post_code":"31000","city":"Toulouse"},{"location":{"lng":"1.605189","lat":"42.96422099999999"},"title":"CASINO SUPERMARCH\u00e9","address":"Place du 59\u00e8me r\u00e9giment d'infanterie","post_code":"09000","city":"Foix "},{"location":{"lng":"2.061496","lat":"42.520843"},"title":"CASINO SUPERMARCH\u00e9","address":"Pyr\u00e9n\u00e9es 2000","post_code":"66210","city":"Bolqu\u00e8re"},{"location":{"lng":"0.7673688","lat":"43.1122077"},"title":"CASINO SUPERMARCH\u00e9","address":"RN 117 lieu dit paban ","post_code":"31800","city":"Estancarbon"},{"location":{"lng":"0.5932616","lat":"42.7934464"},"title":"CASINO SUPERMARCH\u00e9","address":"43 avenue mar\u00e9chal foch ","post_code":"31110","city":"Bagn\u00e8res de luchon "},{"location":{"lng":"1.4381586","lat":"43.6127775"},"title":"CASINO SUPERMARCH\u00e9","address":"37 bis Avenue Honor\u00e9 Serres","post_code":"31000","city":"TOULOUSE"},{"location":{"lng":"2.0059167","lat":"43.4638003"},"title":"CASINO SUPERMARCH\u00e9","address":"Chemin des Bordes","post_code":"31250","city":"REVEL"},{"location":{"lng":"1.4545833","lat":"43.6176391"},"title":"CASINO SUPERMARCH\u00e9","address":"25 rue du Faubourg Bonnefoy","post_code":"31500","city":"TOULOUSE"},{"location":{"lng":"-0.3543291","lat":"43.30120890000001"},"title":"CASINO SUPERMARCH\u00e9","address":"5 Avenue Charles de Gaulle","post_code":"64100","city":"PAU"},{"location":{"lng":"1.4342297","lat":"43.6264292"},"title":"CASINO SUPERMARCH\u00e9","address":"178 Avenue des Minimes","post_code":"31200","city":"TOULOUSE"},{"location":{"lng":"1.461425","lat":"43.588086"},"title":"CASINO SUPERMARCH\u00e9","address":"2-4 Boulevard Griffoul et 1 Avenue Saint-Exup\u00e9ry","post_code":"31400","city":"TOULOUSE"},{"location":{"lng":"-0.379161","lat":"43.3195404"},"title":"CASINO SUPERMARCH\u00e9","address":"163 Avenue Jean Mermoz","post_code":"64140","city":"PAU"},{"location":{"lng":"1.4784067","lat":"43.6550823"},"title":"CASINO SUPERMARCH\u00e9","address":"RN 88, Centre Commercial Saint-Caprais","post_code":"31240","city":"L'UNION"},{"location":{"lng":"1.4146923","lat":"43.58992010000001"},"title":"CASINO SUPERMARCH\u00e9","address":"389 Route de Saint-Simon","post_code":"31100","city":"TOULOUSE"},{"location":{"lng":"4.4182855","lat":"44.6048526"},"title":"CASINO SUPERMARCH\u00e9","address":"Rue de Mont\u00e9limar, RN 102","post_code":"07200","city":"AUBENAS"},{"location":{"lng":"5.817765","lat":"43.73168099999999"},"title":"CASINO SUPERMARCH\u00e9","address":"Route de Gr\u00e9ous Les Adrechs","post_code":"83560","city":"VINON-SUR-VERDON"},{"location":{"lng":"4.8809172","lat":"44.8766705"},"title":"CASINO SUPERMARCH\u00e9","address":"Place du 8 mai 1945","post_code":"26800","city":"PORTES-LES-VALENCES"},{"location":{"lng":"5.078346","lat":"45.346157"},"title":"CASINO SUPERMARCH\u00e9","address":"Lieu dit le Suzon","post_code":"38270","city":"Saint-Barth\u00e9l\u00e9my"},{"location":{"lng":"5.010491","lat":"44.901442"},"title":"CASINO SUPERMARCH\u00e9","address":"1 Rue Marius Chatte","post_code":"26120","city":"CHABEUIL"},{"location":{"lng":"5.2595598","lat":"43.6486413"},"title":"CASINO SUPERMARCH\u00e9","address":"Avenue Jean Monnet, ZAC Bertoire","post_code":"13410","city":"LAMBESC"},{"location":{"lng":"5.8221389","lat":"44.310991"},"title":"CASINO SUPERMARCH\u00e9","address":"11 Avenue du Maqui Morvan","post_code":"05300","city":"LARAGNE"},{"location":{"lng":"4.8043933","lat":"45.3483855"},"title":"CASINO SUPERMARCH\u00e9","address":"125 Route Nationale 7","post_code":"38150","city":"Salaise-Sur-Sanne"},{"location":{"lng":"6.0019681","lat":"44.0809123"},"title":"CASINO SUPERMARCH\u00e9","address":"RN 96 Avenue du Jas","post_code":"04160","city":"Ch\u00e2teau-Arnoux-Saint-Auban"},{"location":{"lng":"5.7699129","lat":"43.9508874"},"title":"CASINO SUPERMARCH\u00e9","address":"Quartier La Beaudine, Centre Commercial Les 3 Routes","post_code":"04300","city":"FORCALQUIER"},{"location":{"lng":"4.816798599999999","lat":"44.1343513"},"title":"CASINO SUPERMARCH\u00e9","address":"Quartier de L'Argensol","post_code":"84100","city":"ORANGE"},{"location":{"lng":"4.6480159","lat":"44.2603943"},"title":"CASINO SUPERMARCH\u00e9","address":"1 Avenue du Pr\u00e9sident Kennedy","post_code":"30130","city":"Pont-Saint-Esprit"},{"location":{"lng":"5.0054307","lat":"44.7374724"},"title":"CASINO SUPERMARCH\u00e9","address":"ZAC de Candamine","post_code":"26400","city":"CREST"},{"location":{"lng":"4.7101621","lat":"44.06047"},"title":"CASINO SUPERMARCH\u00e9","address":"ZAC de Tesan","post_code":"30126","city":"Saint-Laurent-Des-Arbres"},{"location":{"lng":"6.6291791","lat":"44.3868131"},"title":"CASINO SUPERMARCH\u00e9","address":"Les terres neuves Saint-Pons","post_code":"04400","city":"BARCELONNETTE"},{"location":{"lng":"4.819687699999999","lat":"43.9495191"},"title":"CASINO SUPERMARCH\u00e9","address":"36 Boulevard Limbert","post_code":"84000","city":"Avignon"},{"location":{"lng":"6.0315939","lat":"43.109313"},"title":"CASINO SUPERMARCH\u00e9","address":"Rue Jean Monnet","post_code":"83220","city":"LE PRADET"},{"location":{"lng":"5.8490627","lat":"43.09614879999999"},"title":"CASINO SUPERMARCH\u00e9","address":"Avenue Mar\u00e9chal Juin","post_code":"83140","city":"Six-Fours"},{"location":{"lng":"5.9381955","lat":"43.130424"},"title":"CASINO SUPERMARCH\u00e9","address":"484 Avenue de Siblas","post_code":"83000","city":"TOULON SIBLAS"},{"location":{"lng":"6.0478203","lat":"43.2039233"},"title":"CASINO SUPERMARCH\u00e9","address":"Route de Nice","post_code":"83210","city":"Solli\u00e8s-Pont"},{"location":{"lng":"6.2316451","lat":"43.1375782"},"title":"CASINO SUPERMARCH\u00e9","address":"RN 98 Le village ","post_code":"83250","city":"La londe "},{"location":{"lng":"5.7480115","lat":"43.14331749999999"},"title":"CASINO SUPERMARCH\u00e9","address":"Route de marseille r\u00e9sidence la payri\u00e8re ","post_code":"83150","city":"Bandol"},{"location":{"lng":"5.805631099999999","lat":"43.1210757"},"title":"CASINO SUPERMARCH\u00e9","address":"Quartier saint roch chemin de la buge","post_code":"83110","city":"Sanary sur mer"},{"location":{"lng":"5.819802","lat":"43.1222678"},"title":"CASINO SUPERMARCH\u00e9","address":"Route de la gare, quartier des prats","post_code":"83110","city":"Sanary "},{"location":{"lng":"5.8063771","lat":"43.198845"},"title":"CASINO SUPERMARCH\u00e9","address":"RN 8 Quartier le peyron ","post_code":"83330","city":"Le Beausset"},{"location":{"lng":"5.8826119","lat":"43.1002817"},"title":"CASINO SUPERMARCH\u00e9","address":"4 avenue garibaldi ","post_code":"83500","city":"La Seyne sur mer"},{"location":{"lng":"6.2381601","lat":"43.1391038"},"title":"CASINO SUPERMARCH\u00e9","address":"Avenue georges cl\u00e9menceau","post_code":"83250","city":"La londe "},{"location":{"lng":"6.0788695","lat":"43.0924584"},"title":"CASINO SUPERMARCH\u00e9","address":"Quartier saint vincent ","post_code":"83320","city":"Carqueiranne"},{"location":{"lng":"6.3501337","lat":"43.1387461"},"title":"CASINO SUPERMARCH\u00e9","address":"Avenue des ligures ","post_code":"83230","city":"Bormes les mimosas"},{"location":{"lng":"5.9057255","lat":"43.12767059999999"},"title":"CASINO SUPERMARCH\u00e9","address":"Avenue aristide briand traverse arnaud","post_code":"83200","city":"Toulon"},{"location":{"lng":"5.9824142","lat":"43.1339011"},"title":"CASINO SUPERMARCH\u00e9","address":"Angle avenue pasteur et RN 97","post_code":"83160","city":"Toulon"},{"location":{"lng":"6.1276169","lat":"43.1074298"},"title":"CASINO SUPERMARCH\u00e9","address":"Angle boulevard geoffroy saint hilaire et avenue P. renaudel","post_code":"83400","city":"Hy\u00e8res"},{"location":{"lng":"5.938024299999999","lat":"43.11434"},"title":"CASINO SUPERMARCH\u00e9","address":"Avenue de lattre de tassigny quartier port marchand","post_code":"83100","city":"Toulon"}]}